place_standardized_id,place_standardized,country_code,place_standardized_cc,authority_file_uri,latitude,longitude,region,n
1,Aabenraa,DK,Aabenraa DK,http://sws.geonames.org/2625070/,55.04434,9.41741,C,0.6931471805599453
2,Aachen,DE,Aachen DE,http://sws.geonames.org/3247449/,50.77664,6.08342,A,0
3,Aagtekerke,NL,Aagtekerke NL,http://sws.geonames.org/2760147/,51.54667,3.50972,A,0
4,Aalbeek,NL,Aalbeek NL,http://sws.geonames.org/2760145/,50.9,5.85139,A,1.6094379124341003
5,Aalborg,DK,Aalborg DK,http://sws.geonames.org/2624886/,57.048,9.9187,C,0
6,Aalburg,NL,Aalburg NL,http://sws.geonames.org/2760144/,51.75482,5.13156,A,0
7,Aalden,NL,Aalden NL,http://sws.geonames.org/2760142/,52.79,6.71806,A,0
8,Aalen,DE,Aalen DE,http://sws.geonames.org/2959927/,48.83777,10.0933,D,1.9459101490553132
9,Aalsmeer,NL,Aalsmeer NL,http://sws.geonames.org/2760134/,52.25917,4.75972,A,1.0986122886681098
10,Aalst,BE,Aalst BE,http://sws.geonames.org/2803448/,50.93604,4.0355,A,0.6931471805599453
11,Aalst,NL,Aalst NL,http://sws.geonames.org/2760131/,51.7825,5.12778,A,1.9459101490553132
12,Aalsum,NL,Aalsum NL,http://sws.geonames.org/2760124/,53.3075,6.36944,A,0
13,Aalten,NL,Aalten NL,http://sws.geonames.org/2760123/,51.925,6.58056,A,0
14,Aarau,CH,Aarau CH,http://sws.geonames.org/2661881/,47.39254,8.04422,D,0
15,Aarbergen,DE,Aarbergen DE,http://sws.geonames.org/3208019/,50.25,8.06667,D,2.5649493574615367
16,Aarburg,CH,Aarburg CH,http://sws.geonames.org/2661879/,47.32067,7.89986,D,4.07753744390572
17,Aardenburg,NL,Aardenburg NL,http://sws.geonames.org/2760096/,51.27333,3.44722,A,0
18,Aarhus,DK,Aarhus DK,http://sws.geonames.org/2624652/,56.15674,10.21076,C,1.3862943611198906
19,Aarlanderveen,NL,Aarlanderveen NL,http://sws.geonames.org/2760092/,52.14083,4.72778,A,0
20,Aarle-Rixtel,NL,Aarle-Rixtel NL,http://sws.geonames.org/6698718/,51.50976,5.63839,A,0
21,Aarlen,BE,Aarlen BE,http://sws.geonames.org/2803073/,49.68333,5.81667,F,0
22,Aars,DK,Aars DK,http://sws.geonames.org/2624602/,56.80399,9.51441,C,0
23,Aarschot,BE,Aarschot BE,http://sws.geonames.org/2803429/,50.98715,4.83695,A,1.3862943611198906
24,Aarsele,BE,Aarsele BE,http://sws.geonames.org/2803427/,50.99663,3.41954,A,0
25,Aartrijke,BE,Aartrijke BE,http://sws.geonames.org/8521705/,51.11915,3.09076,A,0
26,Aartswoud,NL,Aartswoud NL,http://sws.geonames.org/2760085/,52.74333,4.94861,A,0
27,Abbehausen,DE,Abbehausen DE,http://sws.geonames.org/2959898/,53.48431,8.43845,B,0
28,Abbehausen-Ellwürden,DE,Abbehausen-Ellwürden DE,http://sws.geonames.org/2959898/,53.48431,8.43845,B,0
29,Abbekerk,NL,Abbekerk NL,http://sws.geonames.org/2760078/,52.73167,5.01806,A,0
30,Abbenbroek,NL,Abbenbroek NL,http://sws.geonames.org/2760075/,51.84833,4.24306,A,0
31,Abbendorf,DE,Abbendorf DE,http://sws.geonames.org/2959889/,52.89904,11.91325,B,0
32,Abbenhausen,DE,Abbenhausen DE,http://sws.geonames.org/2959886/,52.82516,8.63477,B,0
33,Abbenrode,DE,Abbenrode DE,http://sws.geonames.org/2959884/,52.24931,10.72522,B,0
35,Abbeville,FR,Abbeville FR,http://sws.geonames.org/3038789/,50.1,1.83333,F,0
36,Abcoude,NL,Abcoude NL,http://sws.geonames.org/2760067/,52.2725,4.96944,A,0
37,Abele,BE,Abele BE,http://sws.geonames.org/2803400/,50.81667,2.66667,A,0
38,Abenheim,DE,Abenheim DE,http://sws.geonames.org/2959847/,49.67612,8.28392,D,0
39,Abens,DE,Abens DE,http://sws.geonames.org/2959845/,53.5966,7.72612,B,0
40,Aberdeen,GB,Aberdeen GB,http://sws.geonames.org/2657832/,57.14369,-2.09814,E,0
41,Aboncourt,FR,Aboncourt FR,http://sws.geonames.org/3038748/,49.26047,6.34792,F,0
42,Abstatt,DE,Abstatt DE,http://sws.geonames.org/2959793/,49.0682,9.2907,D,0
43,Abteroda,DE,Abteroda DE,http://sws.geonames.org/2959783/,50.90217,10.07652,D,0
45,Abtlöbnitz,DE,Abtlöbnitz DE,http://sws.geonames.org/2959778/,51.08038,11.71897,D,0
46,Accumersiel,DE,Accumersiel DE,http://sws.geonames.org/2959740/,53.52658,8.04973,B,0
47,Achenheim,FR,Achenheim FR,http://sws.geonames.org/3038715/,48.5807,7.62803,D,0
48,Achim,DE,Achim DE,http://sws.geonames.org/2959681/,53.01416,9.0263,B,0
49,Achterberg,NL,Achterberg NL,http://sws.geonames.org/2760049/,51.9725,5.5875,A,0
50,Achterhoek,NL,Achterhoek NL,http://sws.geonames.org/2760025/,52.21917,5.40833,A,0
51,Achterveld,NL,Achterveld NL,http://sws.geonames.org/2759995/,52.13583,5.49722,A,0
52,Achttienhoven,NL,Achttienhoven NL,http://sws.geonames.org/2759977/,52.14833,5.13889,A,0
53,Acquoy,NL,Acquoy NL,http://sws.geonames.org/2759975/,51.87917,5.13611,A,0
54,Adegem,BE,Adegem BE,http://sws.geonames.org/2803347/,51.20509,3.4954,A,0.6931471805599453
55,Adelebsen,DE,Adelebsen DE,http://sws.geonames.org/2959548/,51.58272,9.75461,D,1.6094379124341003
56,Adelsdorf,DE,Adelsdorf DE,http://sws.geonames.org/2959513/,49.71216,10.895,D,0
57,Adelshausen,DE,Adelshausen DE,http://sws.geonames.org/2959509/,51.11059,9.57345,D,0
58,Adelsheim,DE,Adelsheim DE,http://sws.geonames.org/2959508/,49.4015,9.3925,D,0
59,Adelshofen,DE,Adelshofen DE,http://sws.geonames.org/2959503/,49.16888,8.8911,D,0
60,Adenau,DE,Adenau DE,http://sws.geonames.org/2959489/,50.38238,6.93291,D,0
61,Adenbach,DE,Adenbach DE,http://sws.geonames.org/2959486/,49.66667,7.65,D,0
62,Adenberg,DE,Adenberg DE,http://sws.geonames.org/2959484/,48.58555,13.12083,D,0
63,Adenstedt,DE,Adenstedt DE,http://sws.geonames.org/2959474/,52.24978,10.16575,B,0
64,Adersheim,DE,Adersheim DE,http://sws.geonames.org/2959466/,52.14324,10.4614,B,0
65,Adersleben,DE,Adersleben DE,http://sws.geonames.org/2959465/,51.89493,11.18693,D,0
66,Adorf,DE,Adorf DE,http://sws.geonames.org/2959387/,51.35983,8.80539,D,0
67,Adorf/Vogtl.,DE,Adorf/Vogtl. DE,http://sws.geonames.org/8533755/,50.32048,12.25602,D,0
68,Adorp,NL,Adorp NL,http://sws.geonames.org/2759967/,53.275,6.53333,A,0
69,Adra,ES,Adra ES,http://sws.geonames.org/2522430/,36.74961,-3.02055,G,0
70,Aduard,NL,Aduard NL,http://sws.geonames.org/2759961/,53.25667,6.45972,A,0
71,Aerdenburg,NL,Aerdenburg NL,http://sws.geonames.org/6544770/,51.895,6.075,A,0
72,Ærø,DK,Ærø DK,http://sws.geonames.org/2625003/,54.88333,10.33333,C,0
73,Aerzen,DE,Aerzen DE,http://sws.geonames.org/2959374/,52.04953,9.25856,B,0
74,Afferden,NL,Afferden NL,http://sws.geonames.org/2759945/,51.88,5.63472,A,0
75,Affligem,BE,Affligem BE,http://sws.geonames.org/6639685/,50.90942,4.11163,A,0
76,Affoltern,CH,Affoltern CH,http://sws.geonames.org/2661842/,47.27743,8.45128,D,0
78,Afterode,DE,Afterode DE,http://sws.geonames.org/2959325/,50.78753,9.32117,D,1.0986122886681098
79,Agel,FR,Agel FR,http://sws.geonames.org/3038636/,43.33745,2.85343,F,0.6931471805599453
80,Agen,FR,Agen FR,http://sws.geonames.org/3038634/,44.19991,0.62664,F,0
81,Ahaus,DE,Ahaus DE,http://sws.geonames.org/2959279/,52.07936,7.01344,B,0
82,Ahausen,DE,Ahausen DE,http://sws.geonames.org/2959272/,53.06667,9.31667,B,0
83,Ahlbeck,DE,Ahlbeck DE,http://sws.geonames.org/2959244/,53.66972,14.18622,B,0
84,Ahlefeld,DE,Ahlefeld DE,http://sws.geonames.org/2959227/,54.40367,9.67889,B,0
85,Ahlem,DE,Ahlem DE,http://sws.geonames.org/2959226/,52.37811,9.66436,B,0
86,Ahlen,DE,Ahlen DE,http://sws.geonames.org/2959223/,51.76338,7.8887,B,0
87,Ahlenberg,DE,Ahlenberg DE,http://sws.geonames.org/2959217/,51.42768,7.46495,D,0
88,Ahlstädt,DE,Ahlstädt DE,http://sws.geonames.org/2959174/,50.53333,10.68333,D,0.6931471805599453
89,Ahlten,DE,Ahlten DE,http://sws.geonames.org/2959172/,52.36669,9.90932,B,0
90,Ahrensburg,DE,Ahrensburg DE,http://sws.geonames.org/2959083/,53.67515,10.22593,B,2.3978952727983707
91,Ahrensdorf,DE,Ahrensdorf DE,http://sws.geonames.org/2959076/,53.11211,13.57661,B,4.61512051684126
92,Ahrweiler,DE,Ahrweiler DE,http://sws.geonames.org/2959047/,50.54169,7.09549,D,2.302585092994046
93,Åhus,SE,Åhus SE,http://sws.geonames.org/2727363/,55.91667,14.28333,C,5.541263545158426
94,Aimargues,FR,Aimargues FR,http://sws.geonames.org/3038427/,43.68448,4.20999,F,0
95,Airth,GB,Airth GB,http://sws.geonames.org/2657592/,56.06983,-3.77209,E,0
96,Aix-en-Provence,FR,Aix-en-Provence FR,http://sws.geonames.org/3038354/,43.5283,5.44973,F,0
97,Aken,DE,Aken DE,http://sws.geonames.org/2958781/,51.85274,12.04461,D,2.0794415416798357
98,Akersloot,NL,Akersloot NL,http://sws.geonames.org/2759931/,52.56083,4.73333,A,0
99,Akkerwoude,NL,Akkerwoude NL,http://sws.geonames.org/2759924/,53.28333,5.98333,A,0
100,Akkrum,NL,Akkrum NL,http://sws.geonames.org/2759922/,53.05024,5.83087,A,0
101,Alach,DE,Alach DE,http://sws.geonames.org/2958774/,50.98628,10.92981,D,0
102,Åland,FI,Åland FI,http://sws.geonames.org/661485/,60.25,20,C,0.6931471805599453
103,Alba,IT,Alba IT,http://sws.geonames.org/3183364/,44.6999,8.0347,H,0
104,Albachten,DE,Albachten DE,http://sws.geonames.org/2958755/,51.92109,7.52831,B,0
105,Albanië,AL,Albanië AL,http://sws.geonames.org/783754/,41,20,I,1.791759469228055
106,Alberode,DE,Alberode DE,http://sws.geonames.org/2958728/,51.18294,9.93769,D,0
107,Albersdorf,DE,Albersdorf DE,http://sws.geonames.org/2958710/,54.15,9.28333,B,0
108,Albersloh,DE,Albersloh DE,http://sws.geonames.org/2958704/,51.86783,7.73768,B,0
109,Albersweiler,DE,Albersweiler DE,http://sws.geonames.org/2958696/,49.21917,8.03,D,0
110,Albi,FR,Albi FR,http://sws.geonames.org/3038261/,43.9298,2.148,F,0
111,Albing,AT,Albing AT,http://sws.geonames.org/2782823/,48.22645,14.54641,D,0
112,Alblasserdam,NL,Alblasserdam NL,http://sws.geonames.org/2759915/,51.86583,4.66111,A,0
113,Alblasserwaard,NL,Alblasserwaard NL,http://sws.geonames.org/2759913/,51.88333,4.83333,A,0
114,Alburgh,GB,Alburgh GB,http://sws.geonames.org/2657569/,52.43629,1.33304,E,0
115,Aldeboarn,NL,Aldeboarn NL,http://sws.geonames.org/2749669/,53.05,5.9,A,0
116,Aldekerk,DE,Aldekerk DE,http://sws.geonames.org/2958584/,51.43956,6.41662,B,0
117,Aldenburg,DE,Aldenburg DE,http://sws.geonames.org/2958582/,53.53645,8.07575,B,0
118,Alem,NL,Alem NL,http://sws.geonames.org/2759906/,51.78667,5.34306,A,0
119,Alençon,FR,Alençon FR,http://sws.geonames.org/3038230/,48.43476,0.09311,F,0
120,Alendorf,DE,Alendorf DE,http://sws.geonames.org/2958561/,50.36803,6.63723,D,0
121,Alendorp,NL,Alendorp NL,http://sws.geonames.org/2759905/,52.0925,5.03472,A,0
124,Alfeld,DE,Alfeld DE,http://sws.geonames.org/2958533/,51.98382,9.81989,B,0
125,Alfen,DE,Alfen DE,http://sws.geonames.org/2958532/,51.6527,8.69993,D,0
126,Alfert,DE,Alfert DE,http://sws.geonames.org/2958526/,51.36667,8.41667,D,0
128,Alicante,ES,Alicante ES,http://sws.geonames.org/2521978/,38.34517,-0.48149,G,0
129,Alinghuizen,NL,Alinghuizen NL,http://sws.geonames.org/2759902/,53.3125,6.50139,A,0
130,Alkmaar,NL,Alkmaar NL,http://sws.geonames.org/2759899/,52.63167,4.74861,A,2.6390573296152584
131,Allendorf,DE,Allendorf DE,http://sws.geonames.org/2958438/,51.02995,8.67232,D,0
132,Almelo,NL,Almelo NL,http://sws.geonames.org/2759887/,52.35667,6.6625,A,1.0986122886681098
133,Almen,NL,Almen NL,http://sws.geonames.org/2759884/,52.15833,6.3,A,0
134,Almeria,ES,Almeria ES,http://sws.geonames.org/2521886/,36.83814,-2.45974,G,0
135,Almkerk,NL,Almkerk NL,http://sws.geonames.org/2759878/,51.77083,4.95972,A,0
136,Alpen,DE,Alpen DE,http://sws.geonames.org/6553043/,51.5833,6.51667,B,0
137,Alphen aan de Maas,NL,Alphen aan de Maas NL,http://sws.geonames.org/2759877/,51.48167,4.95833,A,0
138,Alphen aan den Rijn,NL,Alphen aan den Rijn NL,http://sws.geonames.org/2759875/,52.12917,4.65546,A,0
139,Alphen,NL,Alphen NL,http://sws.geonames.org/2759877/,51.48167,4.95833,A,1.6094379124341003
140,Alphen-Chaam,NL,Alphen-Chaam NL,http://sws.geonames.org/2759877/,51.48167,4.95833,A,0
141,Als,DK,Als DK,http://sws.geonames.org/2624788/,56.75511,10.29095,C,0
142,Alsace,FR,Alsace FR,http://sws.geonames.org/3038033/,48.33333,7.43333,D,3.58351893845611
143,Alsdorf,DE,Alsdorf DE,http://sws.geonames.org/2958141/,50.87673,6.16399,D,0
144,Alsemberg,BE,Alsemberg BE,http://sws.geonames.org/2803266/,50.74134,4.33754,A,0
145,Alsenz,DE,Alsenz DE,http://sws.geonames.org/2958134/,49.71667,7.81667,D,0
146,Alsfeld,DE,Alsfeld DE,http://sws.geonames.org/2958128/,50.75185,9.27082,D,2.4849066497880004
147,Alsheim,DE,Alsheim DE,http://sws.geonames.org/2958126/,49.76806,8.34028,D,0
148,Alsleben,DE,Alsleben DE,http://sws.geonames.org/2958121/,51.70161,11.67648,D,1.0986122886681098
149,Alstätte,DE,Alstätte DE,http://sws.geonames.org/2958112/,52.12304,6.91348,A,0
150,Alten-Buseck,DE,Alten-Buseck DE,http://sws.geonames.org/2957761/,50.62218,8.75322,D,0
151,Altena,DE,Altena DE,http://sws.geonames.org/2957886/,51.29472,7.67337,D,1.9459101490553132
152,Altenbamberg,DE,Altenbamberg DE,http://sws.geonames.org/2957869/,49.78333,7.83333,D,0
153,Altenbeken,DE,Altenbeken DE,http://sws.geonames.org/2957864/,51.76455,8.94201,B,0
154,Altenbeuren,DE,Altenbeuren DE,http://sws.geonames.org/2957824/,47.78575,9.32549,D,0
155,Altenbruch,DE,Altenbruch DE,http://sws.geonames.org/2957812/,53.82396,8.77199,B,0.6931471805599453
156,Altenburg,DE,Altenburg DE,http://sws.geonames.org/2957773/,50.98763,12.43684,D,0
157,Altendorf,DE,Altendorf DE,http://sws.geonames.org/6556729/,49.8,11.0167,D,0
158,Altengamme,DE,Altengamme DE,http://sws.geonames.org/2957686/,53.43167,10.27485,B,1.0986122886681098
159,"Altengronau, Sinntal",DE,"Altengronau, Sinntal DE",http://sws.geonames.org/2957669/,50.25011,9.6159,D,3.9318256327243257
160,Altenheim,FR,Altenheim FR,http://sws.geonames.org/3038022/,48.71962,7.46272,D,0
161,Altenhofen,DE,Altenhofen DE,http://sws.geonames.org/2957594/,49.19803,11.21095,D,0
162,Altenrath,DE,Altenrath DE,http://sws.geonames.org/2957512/,50.85882,7.19524,D,0
163,Altenrüthen,DE,Altenrüthen DE,http://sws.geonames.org/2957492/,51.49622,8.40828,D,0.6931471805599453
164,Altenwalde,DE,Altenwalde DE,http://sws.geonames.org/2957425/,53.81834,8.66213,B,0.6931471805599453
165,Altenweddingen,DE,Altenweddingen DE,http://sws.geonames.org/2957422/,51.99883,11.52946,D,1.6094379124341003
166,Alterode,DE,Alterode DE,http://sws.geonames.org/2957341/,51.67552,11.38362,D,0
167,Altfunnixsiel,DE,Altfunnixsiel DE,http://sws.geonames.org/2957202/,53.65272,7.78029,B,0
168,Althofen,AT,Althofen AT,http://sws.geonames.org/2782645/,46.87298,14.47449,D,2.8903717578961645
169,Alting,NL,Alting NL,http://sws.geonames.org/2759857/,52.86583,6.53889,A,0
170,Altkirch,FR,Altkirch FR,http://sws.geonames.org/3038012/,47.61667,7.25,D,1.0986122886681098
171,Altlandsberg,DE,Altlandsberg DE,http://sws.geonames.org/2957051/,52.56503,13.72815,B,1.0986122886681098
172,Altleisnig,DE,Altleisnig DE,http://sws.geonames.org/2957038/,51.17533,12.89772,D,0
173,Altmark,DE,Altmark DE,https://www.wikidata.org/wiki/Q442655,52.716666666667,11.4,B,0.6931471805599453
174,Altona,DE,Altona DE,http://sws.geonames.org/11669492/,53.55018,9.94653,B,0
175,Altorf,FR,Altorf FR,http://sws.geonames.org/3038008/,48.52166,7.52787,D,4.143134726391533
176,Alverdissen,DE,Alverdissen DE,http://sws.geonames.org/2956737/,52.03143,9.1256,B,6.52649485957079
177,Alveringen,BE,Alveringen BE,http://sws.geonames.org/2803253/,50.97932,2.67751,A,0
178,Älvsborg,SE,Älvsborg SE,http://sws.geonames.org/2726265/,57.67306,11.86667,C,0
179,Alzen,FR,Alzen FR,http://sws.geonames.org/3037993/,42.9895,1.47146,F,0
180,Alzey,DE,Alzey DE,http://sws.geonames.org/2956710/,49.74657,8.11513,D,1.791759469228055
181,Alzheim,DE,Alzheim DE,http://sws.geonames.org/3207681/,50.29799,7.22867,D,0
182,Amager,DK,Amager DK,http://sws.geonames.org/2624740/,55.61667,12.61667,C,0
183,Amalfi,IT,Amalfi IT,http://sws.geonames.org/3183130/,40.6349,14.60238,H,0.6931471805599453
184,Amas,BE,Amas BE,http://sws.geonames.org/2803249/,50.39797,5.41958,F,1.791759469228055
185,Amberg,DE,Amberg DE,http://sws.geonames.org/2956656/,49.44287,11.86267,D,2.302585092994046
186,Amboise,FR,Amboise FR,http://sws.geonames.org/3037902/,47.41249,0.98266,F,4.9344739331306915
188,Ameide,NL,Ameide NL,http://sws.geonames.org/2759849/,51.955,4.9625,A,0
189,Ameland,NL,Ameland NL,http://sws.geonames.org/2759846/,53.44762,5.79256,A,1.3862943611198906
190,Amelinghausen,DE,Amelinghausen DE,http://sws.geonames.org/2956584/,53.12397,10.21274,B,0
191,Amelsen,DE,Amelsen DE,http://sws.geonames.org/2956578/,51.83537,9.76227,B,1.6094379124341003
192,Amen,NL,Amen NL,http://sws.geonames.org/2759838/,52.9425,6.61111,A,1.6094379124341003
193,Amendingen,DE,Amendingen DE,http://sws.geonames.org/2956572/,48.00302,10.17918,D,0
194,Amerdingen,DE,Amerdingen DE,http://sws.geonames.org/2956564/,48.72572,10.48561,D,0
195,Amern,DE,Amern DE,http://sws.geonames.org/2956553/,51.23149,6.25088,D,2.302585092994046
196,Amerongen,NL,Amerongen NL,http://sws.geonames.org/2759828/,52.0025,5.45972,A,0
197,Amersfoort,NL,Amersfoort NL,http://sws.geonames.org/2759821/,52.155,5.3875,A,0
198,Amersham,GB,Amersham GB,http://sws.geonames.org/2657356/,51.66667,-0.61667,E,1.6094379124341003
199,Amiens,FR,Amiens FR,http://sws.geonames.org/3037854/,49.9,2.3,F,2.0794415416798357
200,Amiesn,FR,Amiesn FR,http://sws.geonames.org/6455273/,49.89194,2.29778,F,0
201,Amlishagen,DE,Amlishagen DE,http://sws.geonames.org/2956474/,49.26417,9.96222,D,0
202,Ammerstol,NL,Ammerstol NL,http://sws.geonames.org/2759815/,51.9275,4.80833,A,0
203,Ampsen,NL,Ampsen NL,http://sws.geonames.org/2759811/,52.17,6.42917,A,0
204,Amrum,DE,Amrum DE,http://sws.geonames.org/2956359/,54.65955,8.33951,C,0
205,Amstelland,NL,Amstelland NL,http://sws.geonames.org/2759802/,52.23333,4.88333,A,0
206,Amstelveen,NL,Amstelveen NL,http://sws.geonames.org/2759798/,52.30083,4.86389,A,0
207,Amsterdam,NL,Amsterdam NL,http://sws.geonames.org/2759794/,52.37403,4.88969,A,0
208,Ancona,IT,Ancona IT,http://sws.geonames.org/3183089/,43.5942,13.50337,H,0
209,Andel,NL,Andel NL,http://sws.geonames.org/2750453/,51.78333,5.05833,A,0
210,Anderlecht,BE,Anderlecht BE,http://sws.geonames.org/2803201/,50.83619,4.31454,A,0.6931471805599453
211,Andernach,DE,Andernach DE,http://sws.geonames.org/2956206/,50.43109,7.40425,D,0
212,Andersleben,DE,Andersleben DE,http://sws.geonames.org/2956195/,52.01525,11.3003,B,2.5649493574615367
213,Anderstorp,SE,Anderstorp SE,http://sws.geonames.org/2726032/,57.28333,13.63333,C,0
214,Andorra,AD,Andorra AD,http://sws.geonames.org/3041565/,42.55,1.58333,F,0
215,Ane,NL,Ane NL,http://sws.geonames.org/2759772/,52.61417,6.65139,A,0
216,Ängelholm,SE,Ängelholm SE,http://sws.geonames.org/2725901/,56.2428,12.86219,C,0
217,Angelroda,DE,Angelroda DE,http://sws.geonames.org/2956143/,50.74455,10.86659,D,0
218,Angerburg,PL,Angerburg PL,http://sws.geonames.org/756048/,54.21567,21.7372,B,0
219,Angeren,NL,Angeren NL,http://sws.geonames.org/2759765/,51.91583,5.95833,A,0
220,Angermünde,DE,Angermünde DE,http://sws.geonames.org/2956093/,53.01499,13.99924,B,0
221,Angers,FR,Angers FR,http://sws.geonames.org/3037656/,47.47381,-0.54774,F,0
222,Angleur,BE,Angleur BE,http://sws.geonames.org/2803183/,50.6113,5.59942,F,0
224,Angoulême,FR,Angoulême FR,http://sws.geonames.org/3037598/,45.65,0.15,F,2.772588722239781
225,Anhalt-Bernburg (vorstendom),DE,Anhalt-Bernburg (vorstendom) DE,https://www.wikidata.org/wiki/Q686965,51.79464,11.7401,D,1.6094379124341003
226,Anhalt-Bernburg,DE,Anhalt-Bernburg DE,https://www.wikidata.org/wiki/Q686965,51.79464,11.7401,D,4.804021044733257
227,Anhalt-Dessau (vorstendom),DE,Anhalt-Dessau (vorstendom) DE,https://www.wikidata.org/wiki/Q278874,51.82138,12.24233,D,0
228,Anhalt-Dessau,DE,Anhalt-Dessau DE,https://www.wikidata.org/wiki/Q278874,51.82138,12.24233,D,0.6931471805599453
229,Anhalt-Köthen (vorstendom),DE,Anhalt-Köthen (vorstendom) DE,https://www.wikidata.org/wiki/Q264970,51.75185,11.97093,D,0
230,Anhalt-Köthen,DE,Anhalt-Köthen DE,https://www.wikidata.org/wiki/Q264970,51.75185,11.97093,D,3.332204510175204
231,Anhalt-Zerbst (vorstendom),DE,Anhalt-Zerbst (vorstendom) DE,https://www.wikidata.org/wiki/Q706152,51.9662,12.08517,D,0
232,Anjou,FR,Anjou FR,http://sws.geonames.org/3037562/,45.34832,4.88635,F,0
233,Anjum,NL,Anjum NL,http://sws.geonames.org/2759757/,53.37475,6.12698,A,0
234,Ankeveen,NL,Ankeveen NL,http://sws.geonames.org/2759751/,52.265,5.09861,A,1.0986122886681098
235,Anklam,DE,Anklam DE,http://sws.geonames.org/2956018/,53.85637,13.68965,B,3.8501476017100584
236,Ankum,DE,Ankum DE,http://sws.geonames.org/2956014/,52.55,7.88333,B,0
237,Ankum,NL,Ankum NL,http://sws.geonames.org/2759747/,52.52167,6.24167,A,0
238,Anloo,NL,Anloo NL,http://sws.geonames.org/2759746/,53.04417,6.70139,A,0
239,Annaberg-Buchholz,DE,Annaberg-Buchholz DE,http://sws.geonames.org/2956005/,50.57953,13.00627,D,6.253828811575473
240,Anneburen,NL,Anneburen NL,http://sws.geonames.org/2759730/,53.06551,5.62187,A,8.11102783819368
241,Annecy,FR,Annecy FR,http://sws.geonames.org/3037543/,45.90621,6.1267,H,1.3862943611198906
242,Annen,NL,Annen NL,http://sws.geonames.org/2759729/,53.0575,6.71944,A,0
243,Annweiler,DE,Annweiler DE,http://sws.geonames.org/6553293/,50.4,6.83333,D,2.1972245773362196
244,Anrath,DE,Anrath DE,http://sws.geonames.org/2955947/,51.2789,6.45974,D,2.8903717578961645
245,Anrode,DE,Anrode DE,http://sws.geonames.org/2955939/,51.26667,10.33333,D,0
246,Ansbach,DE,Ansbach DE,http://sws.geonames.org/2955936/,49.30481,10.5931,D,0.6931471805599453
247,Anspach,DE,Anspach DE,http://sws.geonames.org/2955923/,50.30107,8.5102,D,3.7376696182833684
248,Anstruther,GB,Anstruther GB,http://sws.geonames.org/2657267/,56.22315,-2.70229,E,5.2574953720277815
249,Antibes,FR,Antibes FR,http://sws.geonames.org/3037456/,43.56241,7.12777,H,0
250,Antwerpen,BE,Antwerpen BE,http://sws.geonames.org/2803138/,51.21989,4.40346,A,0
251,Apeldoorn,NL,Apeldoorn NL,http://sws.geonames.org/2759706/,52.21,5.96944,A,0
252,Apen,DE,Apen DE,http://sws.geonames.org/2955817/,53.21667,7.8,B,0
253,Apenrade,DK,Apenrade DK,http://sws.geonames.org/2625070/,55.04434,9.41741,C,1.6094379124341003
254,Apolda,DE,Apolda DE,http://sws.geonames.org/2955770/,51.02624,11.51638,D,0
255,Appel,NL,Appel NL,http://sws.geonames.org/2759700/,52.1875,5.54028,A,0
256,Appelscha,NL,Appelscha NL,http://sws.geonames.org/2759698/,52.95526,6.35053,A,0
257,Appeltern,NL,Appeltern NL,http://sws.geonames.org/2759693/,51.8325,5.58611,A,0
258,Appenheim,DE,Appenheim DE,http://sws.geonames.org/2955732/,49.93,8.03333,D,0
259,Appenrode,DE,Appenrode DE,http://sws.geonames.org/2955728/,51.57878,10.73381,D,0
260,Appenzell,CH,Appenzell CH,http://sws.geonames.org/2661740/,47.33103,9.40996,D,0
261,Appingedam,NL,Appingedam NL,http://sws.geonames.org/2759687/,53.32167,6.85833,A,2.3978952727983707
262,Arbach,DE,Arbach DE,http://sws.geonames.org/2955701/,50.28333,7.05,D,0
263,Arboga,SE,Arboga SE,http://sws.geonames.org/2725471/,59.39387,15.83882,C,2.302585092994046
264,Årbogen,NO,Årbogen NO,http://sws.geonames.org/3162991/,64,10.48333,C,0
265,Arbon,CH,Arbon CH,http://sws.geonames.org/2661731/,47.51667,9.43333,D,0
266,Arcen,NL,Arcen NL,http://sws.geonames.org/2759684/,51.47667,6.18056,A,0
268,Archangelsk,RU,Archangelsk RU,http://sws.geonames.org/2759684/,51.47667,6.18056,A,0
269,Archem,NL,Archem NL,http://sws.geonames.org/2759681/,52.47583,6.44028,A,0
270,Arendal,NO,Arendal NO,http://sws.geonames.org/3162955/,58.46151,8.77253,C,0
271,Arendonk,BE,Arendonk BE,http://sws.geonames.org/2803083/,51.32267,5.08289,A,0
272,Arenshausen,DE,Arenshausen DE,http://sws.geonames.org/2955633/,51.37613,9.9687,D,0
273,Arenys de Mar,ES,Arenys de Mar ES,http://sws.geonames.org/3129661/,41.5819,2.54936,G,3.1354942159291497
274,Argantan,FR,Argantan FR,http://sws.geonames.org/6452436/,48.74444,-0.02028,F,0
275,Argenteuil,FR,Argenteuil FR,http://sws.geonames.org/3037044/,48.95,2.25,F,2.1972245773362196
276,Arguedes,ES,Arguedes ES,http://sws.geonames.org/3129587/,43.34821,-4.35245,G,0
277,Arholzen,DE,Arholzen DE,http://sws.geonames.org/2955598/,51.86667,9.56667,B,1.0986122886681098
278,Århus,DK,Århus DK,http://sws.geonames.org/2624652/,56.15674,10.21076,C,0
279,Arkel,NL,Arkel NL,http://sws.geonames.org/2759673/,51.86417,4.99444,A,1.0986122886681098
280,Arkens,NL,Arkens NL,http://sws.geonames.org/2759670/,53.19333,5.55179,A,0
281,Arkhangelsk,RU,Arkhangelsk RU,http://sws.geonames.org/2759684/,51.47667,6.18056,A,2.0794415416798357
282,Arkum,NL,Arkum NL,http://sws.geonames.org/2759668/,53.02973,5.49986,A,0
283,Arles,FR,Arles FR,http://sws.geonames.org/3036938/,43.67681,4.63031,F,0
284,Armentiers,FR,Armentiers FR,http://sws.geonames.org/6450024/,50.68722,2.88028,A,0
285,Arneberg,NO,Arneberg NO,http://sws.geonames.org/3162916/,60.56667,12.06667,C,0
286,Arnemuiden,NL,Arnemuiden NL,http://sws.geonames.org/2759664/,51.50167,3.675,A,2.995732273553991
287,Arnhem,NL,Arnhem NL,http://sws.geonames.org/2759661/,51.98,5.91111,A,0
288,Arnoldshain,DE,Arnoldshain DE,http://sws.geonames.org/2955494/,50.26173,8.45164,D,0
289,Arnoldsweiler,DE,Arnoldsweiler DE,http://sws.geonames.org/2955486/,50.83809,6.48992,D,0
290,Arnouville,FR,Arnouville FR,http://sws.geonames.org/3036843/,48.98333,2.41667,F,1.9459101490553132
291,Arnstadt,DE,Arnstadt DE,http://sws.geonames.org/2955439/,50.84048,10.95198,D,0
292,Arolsen,DE,Arolsen DE,http://sws.geonames.org/2955421/,51.37982,9.01445,D,0
293,Arosa,CH,Arosa CH,http://sws.geonames.org/2661712/,46.77793,9.67621,D,0
294,Arras,FR,Arras FR,http://sws.geonames.org/3036784/,50.29301,2.78186,F,0
295,Arriën,NL,Arriën NL,http://sws.geonames.org/2759655/,52.52583,6.44861,A,0.6931471805599453
296,Artern,DE,Artern DE,http://sws.geonames.org/2955394/,51.36431,11.29167,D,1.0986122886681098
297,Arum,NL,Arum NL,http://sws.geonames.org/2759652/,53.12952,5.47643,A,1.6094379124341003
298,Arundel,GB,Arundel GB,http://sws.geonames.org/2656997/,50.85423,-0.55393,E,0
299,Aš,CZ,Aš CZ,http://sws.geonames.org/3079751/,50.22387,12.19499,D,0
300,Åsberg,NO,Åsberg NO,http://sws.geonames.org/3162771/,60.4058,8.43793,C,0
301,Asbroek,NL,Asbroek NL,http://sws.geonames.org/2759647/,51.2825,5.90972,A,0
302,Asch,NL,Asch NL,http://sws.geonames.org/2759645/,51.93083,5.31111,A,0
303,Aschaffburg,DE,Aschaffburg DE,http://sws.geonames.org/6556940/,49.97575,9.1478,D,0
304,Aschaffenburg,DE,Aschaffenburg DE,http://sws.geonames.org/6556940/,49.97575,9.1478,D,0
305,Aschersleben,DE,Aschersleben DE,http://sws.geonames.org/2955168/,51.75742,11.46084,D,0
306,Asniéres-sur-Seine,FR,Asniéres-sur-Seine FR,http://sws.geonames.org/3036572/,48.91667,2.28333,F,0
307,Asperden,DE,Asperden DE,http://sws.geonames.org/2955069/,51.69487,6.11754,A,0
308,Asperen,NL,Asperen NL,http://sws.geonames.org/2759643/,51.88167,5.10972,A,0
309,Asschat,NL,Asschat NL,http://sws.geonames.org/2759640/,52.13135,5.45169,A,0
310,Asse,BE,Asse BE,http://sws.geonames.org/2803033/,50.91011,4.19836,A,0.6931471805599453
311,Assel,NL,Assel NL,http://sws.geonames.org/2759638/,52.2,5.83889,A,0
312,Asselt,NL,Asselt NL,http://sws.geonames.org/2759635/,51.22583,6.0125,A,2.302585092994046
313,Assen,NL,Assen NL,http://sws.geonames.org/2759633/,52.99667,6.5625,A,0
314,Assendelft,NL,Assendelft NL,http://sws.geonames.org/2759631/,52.46833,4.74306,A,1.0986122886681098
315,Assendorp,NL,Assendorp NL,http://sws.geonames.org/2759630/,52.4,6.06667,A,0
316,Assenede,BE,Assenede BE,http://sws.geonames.org/2803026/,51.22598,3.75085,A,0
317,Assum,NL,Assum NL,http://sws.geonames.org/2759625/,52.51417,4.69861,A,3.6635616461296463
318,Asten,NL,Asten NL,http://sws.geonames.org/2759621/,51.40417,5.74861,A,5.746203190540153
319,Atens,DE,Atens DE,http://sws.geonames.org/2954966/,53.49411,8.47039,B,0.6931471805599453
320,Ath,BE,Ath BE,http://sws.geonames.org/2803010/,50.62937,3.77801,F,0
321,Athens,GR,Athens GR,http://sws.geonames.org/264371/,37.97945,23.71622,I,3.4339872044851463
322,Atteln,DE,Atteln DE,http://sws.geonames.org/2954952/,51.59513,8.79955,D,5.683579767338681
323,Attendorn,DE,Attendorn DE,http://sws.geonames.org/2954932/,51.12645,7.90333,D,0
324,Atzenhain,DE,Atzenhain DE,http://sws.geonames.org/2954873/,50.6369,8.9834599999999991,D,1.9459101490553132
325,Aubers,FR,Aubers FR,http://sws.geonames.org/3036394/,50.59543,2.82666,F,0.6931471805599453
326,Aue,DE,Aue DE,http://sws.geonames.org/2954695/,50.59034,12.70657,D,1.3862943611198906
327,Auerbach,DE,Auerbach DE,http://sws.geonames.org/2954602/,50.51155,12.40083,D,1.6094379124341003
328,Augsburg,DE,Augsburg DE,http://sws.geonames.org/2954172/,48.37154,10.89851,D,0
329,Augustenborg,DK,Augustenborg DK,http://sws.geonames.org/2624439/,54.95201,9.87216,C,0
330,Augustinusga,NL,Augustinusga NL,http://sws.geonames.org/2759611/,53.21785,6.1617,A,0
331,Aurach,DE,Aurach DE,http://sws.geonames.org/2954022/,49.25,10.41667,D,0
332,Aurich,DE,Aurich DE,http://sws.geonames.org/2954006/,53.46919,7.48232,B,0.6931471805599453
333,Aurillac,FR,Aurillac FR,http://sws.geonames.org/3036016/,44.9214,2.43732,F,0
334,Austen,DE,Austen DE,http://sws.geonames.org/2953925/,52.80788,8.47626,B,0
335,Austria,AT,Austria AT,http://sws.geonames.org/2782113/,47.33333,13.33333,D,0
336,Autun,FR,Autun FR,http://sws.geonames.org/3035883/,46.95,4.3,F,0
337,Auvergne,FR,Auvergne FR,http://sws.geonames.org/3035876/,45.66667,3.16667,F,1.0986122886681098
338,Auxerre,FR,Auxerre FR,http://sws.geonames.org/3035843/,47.7996,3.57033,F,2.3978952727983707
339,Aveiro,PT,Aveiro PT,http://sws.geonames.org/2742611/,40.64427,-8.64554,G,1.3862943611198906
340,Avelgem,BE,Avelgem BE,http://sws.geonames.org/2802871/,50.77618,3.44502,A,4.04305126783455
341,Avelsberget,SE,Avelsberget SE,http://sws.geonames.org/2724247/,60.9,15.91667,C,0
342,Avenhorn,NL,Avenhorn NL,http://sws.geonames.org/2759601/,52.6175,4.95139,A,0
343,Avignon,FR,Avignon FR,http://sws.geonames.org/3035681/,43.94834,4.80892,F,0
344,Avranches,FR,Avranches FR,http://sws.geonames.org/3035639/,48.68333,-1.36667,F,0.6931471805599453
345,Axel,NL,Axel NL,http://sws.geonames.org/2759594/,51.26667,3.90833,A,1.0986122886681098
346,Axwijk,NL,Axwijk NL,http://sws.geonames.org/2759590/,52.53116,5.01346,A,0
347,Ayamonte,ES,Ayamonte ES,http://sws.geonames.org/2521456/,37.21329,-7.40807,G,0
348,Baak,NL,Baak NL,http://sws.geonames.org/2759581/,52.0775,6.22778,A,0
349,Baakhoven,NL,Baakhoven NL,http://sws.geonames.org/2759580/,51.06833,5.82639,A,0
350,Baal,BE,Baal BE,http://sws.geonames.org/2802828/,50.9955,4.75317,A,0
351,Baalder,NL,Baalder NL,http://sws.geonames.org/2759575/,52.58579,6.65299,A,0
352,Baambrugge,NL,Baambrugge NL,http://sws.geonames.org/2759572/,52.24583,4.98889,A,0
353,Baard,NL,Baard NL,http://sws.geonames.org/2759567/,53.14185,5.6683,A,0
354,Baardorf,AT,Baardorf AT,http://sws.geonames.org/11609549/,46.74024,14.35596,D,0
355,Baardwijk,NL,Baardwijk NL,http://sws.geonames.org/2759563/,51.69246,5.09628,A,0
356,Baarland,NL,Baarland NL,http://sws.geonames.org/2759562/,51.40833,3.88472,A,0
357,Baarle-Hertog,BE,Baarle-Hertog BE,http://sws.geonames.org/2802816/,51.40504,4.89226,A,0
358,Baarle-Nassau,NL,Baarle-Nassau NL,http://sws.geonames.org/2759554/,51.4475,4.92917,A,0
359,Baarlo,NL,Baarlo NL,http://sws.geonames.org/2759549/,51.33083,6.09444,A,0
360,Baarn,NL,Baarn NL,http://sws.geonames.org/2759544/,52.21167,5.2875,A,0
361,Baars,NL,Baars NL,http://sws.geonames.org/2759541/,52.81333,6.09167,A,0
362,Babberich,Nl,Babberich Nl,http://sws.geonames.org/2759529/,51.9075,6.11111,A,0
363,Bäbelitz,DE,Bäbelitz DE,http://sws.geonames.org/2953776/,54.01765,12.69659,B,0
364,Babylonienbroek,NL,Babylonienbroek NL,http://sws.geonames.org/2759526/,51.74333,5.02222,A,0
365,Bacharach,DE,Bacharach DE,http://sws.geonames.org/2953702/,50.05725,7.76948,D,0
366,Bacherach,DE,Bacherach DE,http://sws.geonames.org/2953702/,50.05725,7.76948,D,0
367,Backnang,DE,Backnang DE,http://sws.geonames.org/2953568/,48.94743,9.43718,D,0
368,Bad Arolsen,DE,Bad Arolsen DE,http://sws.geonames.org/2955421/,51.37982,9.01445,D,0
369,Bad Bergzabern,DE,Bad Bergzabern DE,http://sws.geonames.org/2953549/,49.10245,8.00092,D,0
370,Bad Berka,DE,Bad Berka DE,http://sws.geonames.org/2953548/,50.89982,11.28245,D,0
371,Bad Berleburg,DE,Bad Berleburg DE,http://sws.geonames.org/2953545/,51.05224,8.39227,D,0
372,Bad Brambach,DE,Bad Brambach DE,http://sws.geonames.org/2953538/,50.21667,12.31667,D,0
373,Bad Cannstadt,DE,Bad Cannstadt DE,http://sws.geonames.org/2953533/,48.8048,9.2145,D,0
374,Bad Dürkheim,DE,Bad Dürkheim DE,http://sws.geonames.org/2953522/,49.4618,8.17236,D,0
375,Bad Eilsen,DE,Bad Eilsen DE,http://sws.geonames.org/2953516/,52.24215,9.09822,B,0
376,Bad Ems,DE,Bad Ems DE,http://sws.geonames.org/2953507/,50.33544,7.71369,D,0
377,Bad Godesberg,DE,Bad Godesberg DE,http://sws.geonames.org/2953455/,50.68457,7.15393,D,0
378,Bad Hersfeld,DE,Bad Hersfeld DE,http://sws.geonames.org/2953439/,50.87197,9.70891,D,0
379,Bad Homburg vor der Höhe,DE,Bad Homburg vor der Höhe DE,http://sws.geonames.org/2953436/,50.22683,8.61816,D,0
380,Bad Königshofen,DE,Bad Königshofen DE,http://sws.geonames.org/2885829/,50.30082,10.46887,D,0
381,Bad Kösen,DE,Bad Kösen DE,http://sws.geonames.org/2953418/,51.13431,11.72203,D,0
382,Bad Kreuznach,DE,Bad Kreuznach DE,http://sws.geonames.org/2953416/,49.8414,7.86713,D,0
383,Bad Langensalza,DE,Bad Langensalza DE,http://sws.geonames.org/2953413/,51.10771,10.646,D,0
384,Bad Nieuweschans,NL,Bad Nieuweschans NL,http://sws.geonames.org/2750250/,53.18083,7.20833,B,0
385,Bad Pyrmont,DE,Bad Pyrmont DE,http://sws.geonames.org/2953379/,51.98589,9.25246,B,0
386,Bad Schandau,DE,Bad Schandau DE,http://sws.geonames.org/2953352/,50.91743,14.15494,D,0
387,Bad Schwalbach,DE,Bad Schwalbach DE,http://sws.geonames.org/2953348/,50.14196,8.06964,D,0
388,Bad Sobernheim,DE,Bad Sobernheim DE,http://sws.geonames.org/2831736/,49.78636,7.65146,D,0
389,Bad Sülze,DE,Bad Sülze DE,http://sws.geonames.org/2953327/,54.11084,12.66054,B,0
390,Bad Urach,DE,Bad Urach DE,http://sws.geonames.org/2818246/,48.49107,9.40009,D,0
391,Bad Wildungen,DE,Bad Wildungen DE,http://sws.geonames.org/2953317/,51.11963,9.12475,D,0
392,Badbergen,DE,Badbergen DE,http://sws.geonames.org/2953550/,52.63333,7.98333,B,0
393,Badem,DE,Badem DE,http://sws.geonames.org/2953508/,50,6.61667,D,0
394,Baden,CH,Baden CH,http://sws.geonames.org/2661646/,47.47333,8.30592,D,0
395,Baden-Baden,DE,Baden-Baden DE,http://sws.geonames.org/2953504/,48.7606,8.23975,D,0
396,Baden-Durlach (markgraafschap),DE,Baden-Durlach (markgraafschap) DE,https://www.wikidata.org/wiki/Q650370,49.00937,8.40444,D,0
397,Badenburg,DE,Badenburg DE,http://sws.geonames.org/2953501/,50.62885,8.69141,D,0
398,Badendorf,DE,Badendorf DE,http://sws.geonames.org/2953498/,53.86667,10.56667,B,0
399,Badenhausen,DE,Badenhausen DE,http://sws.geonames.org/2953493/,51.76996,10.20493,D,0.6931471805599453
400,Badenheim,DE,Badenheim DE,http://sws.geonames.org/2953492/,49.83333,7.96667,D,0.6931471805599453
401,Badenweiler,DE,Badenweiler DE,http://sws.geonames.org/2953482/,47.80223,7.67236,D,0
402,Badersen,DE,Badersen DE,http://sws.geonames.org/2953469/,51.14827,13.26569,D,0
403,Badersleben,DE,Badersleben DE,http://sws.geonames.org/2953465/,51.9852,10.88951,B,0
404,Badorf,DE,Badorf DE,http://sws.geonames.org/2953382/,50.80621,6.8838800000000004,D,0
405,Baelen,BE,Baelen BE,http://sws.geonames.org/2802787/,50.63131,5.97433,F,0
406,Baflo,NL,Baflo NL,http://sws.geonames.org/2759520/,53.3625,6.51389,A,0
407,Bågen,SE,Bågen SE,http://sws.geonames.org/3330132/,58.9875,11.15,C,0
408,Bagnolet,FR,Bagnolet FR,http://sws.geonames.org/3035403/,48.86667,2.41667,F,0
409,Bagrationovsk,RU,Bagrationovsk RU,http://sws.geonames.org/579760/,54.38714,20.64372,B,0
411,Bahlingen am Kaiserstuhl,DE,Bahlingen am Kaiserstuhl DE,http://sws.geonames.org/6555764/,48.1228,7.7389,D,0
412,Bahlingen,DE,Bahlingen DE,http://sws.geonames.org/2953276/,48.12064,7.73982,D,0
413,Bahr,NL,Bahr NL,http://sws.geonames.org/2759514/,51.98417,6.04583,A,0
414,Baijum,NL,Baijum NL,http://sws.geonames.org/2759513/,53.16463,5.63272,A,0
415,Baja,HU,Baja HU,http://sws.geonames.org/3055685/,46.17496,18.95639,I,0
416,Bajeux,FR,Bajeux FR,http://sws.geonames.org/3034483/,49.27732,-0.7039,F,0
417,Bakel,NL,Bakel NL,http://sws.geonames.org/2759511/,51.50333,5.74028,A,0
418,Baken,NL,Baken NL,http://sws.geonames.org/2759506/,51.73333,3.83333,A,0
419,Bakhuizen,NL,Bakhuizen NL,http://sws.geonames.org/2759496/,52.86975,5.45926,A,0
420,Bakhuzen,NL,Bakhuzen NL,http://sws.geonames.org/2759496/,52.86975,5.45926,A,0
421,Bakkeveen,NL,Bakkeveen NL,http://sws.geonames.org/2759486/,53.08072,6.25671,A,0
422,Bakkum,NL,Bakkum NL,http://sws.geonames.org/2759483/,52.55945,4.65717,A,0
423,Balen,BE,Balen BE,http://sws.geonames.org/2802743/,51.16837,5.17027,A,0.6931471805599453
424,Balgoy,NL,Balgoy NL,http://sws.geonames.org/2759480/,51.78,5.71389,A,0
426,Balinge,NL,Balinge NL,http://sws.geonames.org/2759475/,52.81083,6.62917,A,0
427,Balk,NL,Balk NL,http://sws.geonames.org/2759472/,52.89756,5.57964,A,0
428,Balkburg,NL,Balkburg NL,http://sws.geonames.org/2759470/,52.59917,6.39444,A,0
429,Ballenstedt,DE,Ballenstedt DE,http://sws.geonames.org/2953060/,51.719,11.23265,D,0
430,Ballum,DK,Ballum DK,http://sws.geonames.org/2624337/,55.08333,8.66667,C,0
431,Ballum,NL,Ballum NL,http://sws.geonames.org/2759456/,53.44339,5.68714,A,0
432,Balsbach,DE,Balsbach DE,http://sws.geonames.org/2953024/,49.47933,9.17427,D,0
433,Baltiejsk,RU,Baltiejsk RU,http://sws.geonames.org/2609906/,54.65455,19.90929,B,0
435,Baltiysk,RU,Baltiysk RU,http://sws.geonames.org/2609906/,54.65455,19.90929,B,0
436,Baltrum,DE,Baltrum DE,http://sws.geonames.org/2953006/,53.72836,7.37143,B,0
437,Bamberg,DE,Bamberg DE,http://sws.geonames.org/2952984/,49.89873,10.90067,D,0
439,Bangert,NL,Bangert NL,http://sws.geonames.org/2759444/,52.73582,5.1801,A,0
442,Bar-le-Duc,FR,Bar-le-Duc FR,http://sws.geonames.org/3034911/,48.77275,5.16108,F,0
444,Barcelona,ES,Barcelona ES,http://sws.geonames.org/3128760/,41.38879,2.15899,G,0
445,Barcelos,PT,Barcelos PT,http://sws.geonames.org/2742416/,41.53174,-8.61843,G,0.6931471805599453
446,Barchem,NL,Barchem NL,http://sws.geonames.org/2759429/,52.12417,6.44306,A,0
447,Bardowick,DE,Bardowick DE,http://sws.geonames.org/2952814/,53.29354,10.38811,B,0
448,Barelveld,NL,Barelveld NL,http://sws.geonames.org/2759424/,53.0525,6.84722,A,0
449,Barenburg,DE,Barenburg DE,http://sws.geonames.org/2952767/,52.61953,8.79999,B,0
450,Barendorf,DE,Barendorf DE,http://sws.geonames.org/2952762/,53.22896,10.52158,B,0
451,Barendrecht,NL,Barendrecht NL,http://sws.geonames.org/2759426/,51.85667,4.53472,A,0
452,Bärenthal,DE,Bärenthal DE,http://sws.geonames.org/2952692/,48.06667,8.93333,D,0
453,Bareveld,NL,Bareveld NL,http://sws.geonames.org/2759424/,53.0525,6.84722,A,0
454,Bargen,NL,Bargen NL,http://sws.geonames.org/2759422/,53.08417,4.83472,A,0
455,Barl-le-Duc,FR,Barl-le-Duc FR,http://sws.geonames.org/3034911/,48.77275,5.16108,F,0
456,Barleben,DE,Barleben DE,http://sws.geonames.org/2952564/,52.20193,11.6177,B,0
457,Barlo,DE,Barlo DE,http://sws.geonames.org/2952558/,51.88528,6.66336,A,0
458,Barneveld,NL,Barneveld NL,http://sws.geonames.org/2759407/,52.14,5.58472,A,0
459,Barnstaple,GB,Barnstaple GB,http://sws.geonames.org/2656281/,51.08022,-4.05808,E,0
460,Barntrup,DE,Barntrup DE,http://sws.geonames.org/2952444/,51.99038,9.11642,B,0
461,Baronville,FR,Baronville FR,http://sws.geonames.org/3034872/,48.93389,6.60912,D,0
462,Barösund,SE,Barösund SE,http://sws.geonames.org/2723381/,58.18333,16.89972,C,0
463,Barry,GB,Barry GB,http://sws.geonames.org/2656235/,51.39979,-3.2838,E,0
464,Barßel,DE,Barßel DE,http://sws.geonames.org/2952398/,53.16981,7.75012,B,0
465,Barsbeek,NL,Barsbeek NL,http://sws.geonames.org/2759398/,52.65667,6.02222,A,0
466,Barsdorf,DE,Barsdorf DE,http://sws.geonames.org/2952411/,53.10212,13.28823,B,0
467,Barsingerhorn,NL,Barsingerhorn NL,http://sws.geonames.org/2759397/,52.785,4.86389,A,0
468,Barsinghausen,DE,Barsinghausen DE,http://sws.geonames.org/2952406/,52.3,9.45,B,0
469,Barth,DE,Barth DE,http://sws.geonames.org/2952372/,54.36346,12.72491,B,0
470,Bartoszyce,PL,Bartoszyce PL,http://sws.geonames.org/776337/,54.25354,20.80819,B,0
471,Basel,CH,Basel CH,http://sws.geonames.org/2661604/,47.55839,7.57327,D,0
472,Basse,NL,Basse NL,http://sws.geonames.org/2759388/,52.80417,6.03194,A,0
473,Båstad,SE,Båstad SE,http://sws.geonames.org/2723287/,56.42689,12.85339,C,0
474,Bastenaken,BE,Bastenaken BE,http://sws.geonames.org/2802583/,50.00347,5.71844,F,0
475,Bastia,FR,Bastia FR,http://sws.geonames.org/3034640/,42.70278,9.45,H,0
476,Batenburg,NL,Batenburg NL,http://sws.geonames.org/2759385/,51.82417,5.62917,A,0
477,Bathmen,NL,Bathmen NL,http://sws.geonames.org/2759381/,52.25,6.2875,A,0
478,Bausendorf,DE,Bausendorf DE,http://sws.geonames.org/2951894/,50.01667,7,D,0
479,Bautzen,DE,Bautzen DE,http://sws.geonames.org/2951881/,51.18035,14.43494,D,0
480,Bavel,NL,Bavel NL,http://sws.geonames.org/2759373/,51.56583,4.83056,A,0
481,Bayern,DE,Bayern DE,http://sws.geonames.org/2951839/,49,11.5,D,0
482,Bayeux,FR,Bayeux FR,http://sws.geonames.org/3034483/,49.27732,-0.7039,F,0
483,Bayonne,FR,Bayonne FR,http://sws.geonames.org/3034475/,43.48333,-1.48333,F,0
484,Bayreuth,DE,Bayreuth DE,http://sws.geonames.org/2951825/,49.94782,11.57893,D,0
485,Bazel,CH,Bazel CH,http://sws.geonames.org/2661604/,47.55839,7.57327,D,0
486,Beaufort,FR,Beaufort FR,http://sws.geonames.org/3034316/,45.71776,6.57391,H,0
487,Beaune,FR,Beaune FR,http://sws.geonames.org/3034126/,47.03333,4.83333,F,0
488,Beckum,DE,Beckum DE,http://sws.geonames.org/2951654/,51.75571,8.04075,B,0
489,Beckum,NL,Beckum NL,http://sws.geonames.org/2759363/,52.21083,6.74167,A,0
490,Bederkesa,DE,Bederkesa DE,http://sws.geonames.org/2951640/,53.62367,8.83799,B,0
491,Bedum,NL,Bedum NL,http://sws.geonames.org/2759356/,53.30083,6.60278,A,1.9459101490553132
492,Beedenkirchen,DE,Beedenkirchen DE,http://sws.geonames.org/2951615/,49.73361,8.70852,D,0
493,Beegden,NL,Beegden NL,http://sws.geonames.org/2759353/,51.18917,5.91944,A,0.6931471805599453
494,Beek,DE,Beek DE,http://sws.geonames.org/2951612/,51.65843,6.47445,A,0
495,Beek,NL,Beek NL,http://sws.geonames.org/2759350/,50.94083,5.79722,A,0
496,Beekbergen,NL,Beekbergen NL,http://sws.geonames.org/2759342/,52.16,5.96389,A,0
497,Beekdorp,NL,Beekdorp NL,http://sws.geonames.org/2759340/,52.355,6.83194,A,0
498,Beelen,DE,Beelen DE,http://sws.geonames.org/2951596/,51.92906,8.11117,B,0
499,Beemster,NL,Beemster NL,http://sws.geonames.org/2757799/,52.558,4.91405,A,0
500,Beernem,BE,Beernem BE,http://sws.geonames.org/2802437/,51.13981,3.33896,A,0
501,Beerse,BE,Beerse BE,http://sws.geonames.org/2802435/,51.31927,4.85304,A,0
502,Beerst,BE,Beerst BE,http://sws.geonames.org/2802430/,51.05983,2.88501,A,0
503,Beerta,NL,Beerta NL,http://sws.geonames.org/2759298/,53.175,7.09167,A,0
504,Beerten,NL,Beerten NL,http://sws.geonames.org/2759296/,51.48569,5.14791,A,0
505,Beesd,NL,Beesd NL,http://sws.geonames.org/2759288/,51.8875,5.19167,A,0
506,Beeskow,DE,Beeskow DE,http://sws.geonames.org/2951528/,52.17291,14.24597,D,0
507,Beets,NL,Beets NL,http://sws.geonames.org/2759280/,52.58833,4.97778,A,0
508,Beetsterzwaag,NL,Beetsterzwaag NL,http://sws.geonames.org/2759275/,53.05914,6.07711,A,0
509,Beieren,DE,Beieren DE,http://sws.geonames.org/2951839/,49,11.5,D,0
510,Beilen,NL,Beilen NL,http://sws.geonames.org/2759271/,52.86333,6.51389,A,0
511,Beilstein,DE,Beilstein DE,http://sws.geonames.org/2951346/,49.0414,9.3137,D,0.6931471805599453
512,Bekum,DE,Bekum DE,http://sws.geonames.org/2951272/,52.27084,10.10073,B,0
513,Belfast,GB,Belfast GB,http://sws.geonames.org/2655984/,54.59682,-5.92541,E,0
514,Belfeld,NL,Belfeld NL,http://sws.geonames.org/2759256/,51.3125,6.11528,A,0.6931471805599453
515,Belfort,FR,Belfort FR,http://sws.geonames.org/3033791/,47.63883,6.85419,D,0
516,Belgeren,NL,Belgeren NL,http://sws.geonames.org/2759252/,51.44,5.74583,A,0
517,Belgrade,RS,Belgrade RS,http://sws.geonames.org/792680/,44.80401,20.46513,I,0
518,Belk,PL,Belk PL,http://sws.geonames.org/3103696/,50.13048,18.71667,I,0
519,Bellegem,BE,Bellegem BE,http://sws.geonames.org/2802334/,50.77686,3.27933,A,0
520,Bellem,BE,Bellem BE,http://sws.geonames.org/2802327/,51.09403,3.49277,A,0
521,Bellêmois,FR,Bellêmois FR,https://www.wikidata.org/wiki/Q2988527,48.37329,0.57005,F,0
522,Bellinghausen,DE,Bellinghausen DE,http://sws.geonames.org/2951195/,50.70445,7.25501,D,0
523,Bellingwolde,NL,Bellingwolde NL,http://sws.geonames.org/2759247/,53.11583,7.16528,A,1.0986122886681098
524,Bellinzona,CH,Bellinzona CH,http://sws.geonames.org/2661567/,46.19278,9.01703,D,0
525,Belm,DE,Belm DE,http://sws.geonames.org/2951175/,52.3,8.13333,B,0
526,Belt,NL,Belt NL,http://sws.geonames.org/2759243/,52.905,4.95139,A,0
527,Belvert,NL,Belvert NL,http://sws.geonames.org/2759235/,51.6,5.24722,A,0
528,Belzig,DE,Belzig DE,http://sws.geonames.org/2951134/,52.14184,12.59272,B,0
529,Bemelen,NL,Bemelen NL,http://sws.geonames.org/2759234/,50.84667,5.7625,A,0
530,Bemmel,NL,Bemmel NL,http://sws.geonames.org/2759231/,51.89167,5.89861,A,0
531,Bemmer,NL,Bemmer NL,http://sws.geonames.org/2759227/,51.55,5.62361,A,0
532,Bendorf,DE,Bendorf DE,http://sws.geonames.org/2951111/,50.42289,7.57924,D,0
533,Beneden-Leeuwen,NL,Beneden-Leeuwen NL,http://sws.geonames.org/2759212/,51.8825,5.51528,A,0
535,Bengen,DE,Bengen DE,http://sws.geonames.org/2951093/,50.56768,7.1343,D,0
536,Bennebroek,NL,Bennebroek NL,http://sws.geonames.org/2759199/,52.32083,4.59861,A,0
537,Bennekom,NL,Bennekom NL,http://sws.geonames.org/2759197/,51.99833,5.67639,A,0
538,Benneveld,NL,Benneveld NL,http://sws.geonames.org/2759193/,52.77667,6.74583,A,0
539,Benningbroek,NL,Benningbroek NL,http://sws.geonames.org/2759191/,52.70167,5.02639,A,0
540,Bensberg,DE,Bensberg DE,http://sws.geonames.org/2950990/,50.96486,7.16334,D,0
541,Benschop,NL,Benschop NL,http://sws.geonames.org/2759186/,52.00833,4.98056,A,0
542,Bensersiel,DE,Bensersiel DE,http://sws.geonames.org/2950982/,53.67271,7.57835,B,0
543,Bentheim,DE,Bentheim DE,http://sws.geonames.org/2953552/,52.30066,7.15763,B,0
544,Benthuizen,NL,Benthuizen NL,http://sws.geonames.org/2759178/,52.0775,4.54444,A,0
545,Bentveld,NL,Bentveld NL,http://sws.geonames.org/2759175/,52.365,4.57222,A,0
547,Berenbroek,NL,Berenbroek NL,http://sws.geonames.org/2759169/,51.4675,5.60694,A,0
548,Berendrecht ,BE,Berendrecht  BE,http://sws.geonames.org/2802243/,51.34252,4.31419,A,0
549,Berendrecht,BE,Berendrecht BE,http://sws.geonames.org/2802243/,51.34252,4.31419,A,0
550,Berg,DE,Berg DE,http://sws.geonames.org/6555003/,48.9833,8.2,D,0
551,Bergambacht,NL,Bergambacht NL,http://sws.geonames.org/2759158/,51.93417,4.78611,A,0
552,Bergeijk,NL,Bergeijk NL,http://sws.geonames.org/2759132/,51.31917,5.35833,A,0
553,Bergen auf Rügen,DE,Bergen auf Rügen DE,http://sws.geonames.org/2950620/,54.41823,13.43349,B,0
554,Bergen,BE,Bergen BE,http://sws.geonames.org/2790869/,50.45413,3.95229,F,0
555,Bergen NH,NL,Bergen NH NL,http://sws.geonames.org/2759151/,52.65783,4.6761,A,0
556,Bergen,NO,Bergen NO,http://sws.geonames.org/3161732/,60.39299,5.32415,C,0
557,Bergen op Zoom,NL,Bergen op Zoom NL,http://sws.geonames.org/2759145/,51.495,4.29167,A,0
558,Bergenhusen,DE,Bergenhusen DE,http://sws.geonames.org/2950607/,54.38333,9.31667,B,0
559,Bergerac,FR,Bergerac FR,http://sws.geonames.org/3033391/,44.85,0.48333,F,0
560,Bergharen,NL,Bergharen NL,http://sws.geonames.org/2759129/,51.85083,5.66944,A,0.6931471805599453
561,Bergheim,DE,Bergheim DE,http://sws.geonames.org/2950438/,50.95572,6.63986,D,1.9459101490553132
562,Berghem,NL,Berghem NL,http://sws.geonames.org/2759126/,51.76991,5.56827,A,0
563,Bergisches Land,DE,Bergisches Land DE,https://www.wikidata.org/wiki/Q153464,51.05,7.3069444444444,D,1.0986122886681098
564,Bergschenhoek,NL,Bergschenhoek NL,http://sws.geonames.org/2759113/,51.99,4.49861,A,0
565,Bergumerdam,NL,Bergumerdam NL,https://www.wikidata.org/wiki/Q2862299,53.19243,5.99009,A,0
566,Beringe,NL,Beringe NL,http://sws.geonames.org/2759097/,51.33667,5.94861,A,0
567,Beringen,BE,Beringen BE,http://sws.geonames.org/2802170/,51.04954,5.22606,A,0
568,Berkel en Rodenrijs,NL,Berkel en Rodenrijs NL,http://sws.geonames.org/6929992/,51.99313,4.47865,A,0
569,Berkel,NL,Berkel NL,http://sws.geonames.org/2759089/,52.00306,4.48723,A,0
570,Berkenwoude,NL,Berkenwoude NL,http://sws.geonames.org/2759078/,51.945,4.70694,A,0
571,Berkersheim,DE,Berkersheim DE,http://sws.geonames.org/2950188/,50.16667,8.7,D,0
572,Berkhout,NL,Berkhout NL,http://sws.geonames.org/2759070/,52.64083,5.00139,A,0
573,Berkum,NL,Berkum NL,http://sws.geonames.org/2759064/,52.52395,6.13655,A,0
574,Berlare,BE,Berlare BE,http://sws.geonames.org/2802154/,51.03333,4,A,0
575,Berlebeck,DE,Berlebeck DE,http://sws.geonames.org/2950168/,51.89185,8.87455,B,0.6931471805599453
576,Berleberg,DE,Berleberg DE,http://sws.geonames.org/2950166/,47.75014,10.47411,D,0
577,Berlicum,NL,Berlicum NL,http://sws.geonames.org/2759059/,51.6775,5.4,A,0
578,Berlijn,DE,Berlijn DE,http://sws.geonames.org/2950159/,52.52437,13.41053,B,0
579,Berlikum,NL,Berlikum NL,http://sws.geonames.org/2759057/,53.2437,5.65101,A,0
580,Berlin,DE,Berlin DE,http://sws.geonames.org/2950159/,52.52437,13.41053,B,0
581,Berlin-Charlottenburg,DE,Berlin-Charlottenburg DE,http://sws.geonames.org/2940187/,52.51667,13.28333,B,0
582,Berlingen,DE,Berlingen DE,http://sws.geonames.org/2950140/,50.23894,6.71934,D,0
583,Berlingerode,DE,Berlingerode DE,http://sws.geonames.org/2950139/,51.45775,10.2384,D,0
584,Berltsum,NL,Berltsum NL,http://sws.geonames.org/2759057/,53.2437,5.65101,A,0
585,Berm,NL,Berm NL,http://sws.geonames.org/2759054/,51.78197,5.32416,A,0
586,Bern,CH,Bern CH,http://sws.geonames.org/2661552/,46.94809,7.44744,D,0
587,Bernberg,DE,Bernberg DE,http://sws.geonames.org/3205789/,51.02384,7.60197,D,0
588,Bernburg,DE,Bernburg DE,http://sws.geonames.org/2950073/,51.79464,11.7401,D,0
589,Berne,DE,Berne DE,http://sws.geonames.org/8379174/,53.1814,8.48222,B,0.6931471805599453
590,Berneck,CH,Berneck CH,http://sws.geonames.org/2661550/,47.42555,9.61619,D,0
591,Berneville,FR,Berneville FR,http://sws.geonames.org/3033284/,50.2664,2.67126,F,0
592,Bernkastel-Kues,DE,Bernkastel-Kues DE,http://sws.geonames.org/2949998/,49.91602,7.07664,D,0
593,Bernsbach,DE,Bernsbach DE,http://sws.geonames.org/2949970/,50.57624,12.76751,D,0
594,Beroun,CZ,Beroun CZ,http://sws.geonames.org/3079467/,49.96382,14.072,D,0
595,Berrie,FR,Berrie FR,http://sws.geonames.org/3033237/,47.06726,-0.06906,F,0
596,Bertsdorf,DE,Bertsdorf DE,http://sws.geonames.org/2949857/,50.88437,14.73291,D,0
597,Berwick-upon-Tweed,GB,Berwick-upon-Tweed GB,http://sws.geonames.org/2655819/,55.76536,-2.01186,E,0
598,Besançon,FR,Besançon FR,http://sws.geonames.org/3033123/,47.248779999999996,6.01815,D,0
599,Besendorf,DE,Besendorf DE,http://sws.geonames.org/2949815/,53.51258,11.29881,B,0
600,Besigheim,DE,Besigheim DE,http://sws.geonames.org/2949803/,48.99797,9.14268,D,0
601,Besoijen,NL,Besoijen NL,http://sws.geonames.org/2759043/,51.68333,5.05,A,0
602,Best,NL,Best NL,http://sws.geonames.org/2759040/,51.5075,5.39028,A,0
603,Béthune,FR,Béthune FR,http://sws.geonames.org/3033002/,50.53333,2.63333,F,0
604,Betuwe,NL,Betuwe NL,http://sws.geonames.org/2759029/,51.91667,5.58333,A,0.6931471805599453
605,Beuel,DE,Beuel DE,http://sws.geonames.org/2949619/,50.73779,7.13445,D,1.791759469228055
606,Beugen,NL,Beugen NL,http://sws.geonames.org/2759027/,51.67417,5.9375,A,0
607,Beusichem,NL,Beusichem NL,http://sws.geonames.org/2759006/,51.95,5.29167,A,0
608,Bever,BE,Bever BE,http://sws.geonames.org/2802052/,50.71635,3.94117,A,0
609,Beveren,BE,Beveren BE,http://sws.geonames.org/2802031/,51.21187,4.25633,A,0
610,Bevergern,DE,Bevergern DE,http://sws.geonames.org/2949496/,52.27593,7.58409,B,0
611,Beveringen,DE,Beveringen DE,http://sws.geonames.org/2949494/,53.15066,12.22077,B,0
612,Beverwijk,NL,Beverwijk NL,http://sws.geonames.org/2758998/,52.48333,4.65694,A,0
613,Beyerberg,DE,Beyerberg DE,http://sws.geonames.org/2949457/,49.11264,10.50528,D,0
614,Bezgenriet,DE,Bezgenriet DE,http://sws.geonames.org/2949443/,48.66713,9.61523,D,0
615,Białogard,PL,Białogard PL,http://sws.geonames.org/3103556/,54.00696,15.98751,B,0
616,Bialogóra,PL,Bialogóra PL,http://sws.geonames.org/3103554/,54.81701,17.9578,B,0
617,Bideford,GB,Bideford GB,http://sws.geonames.org/2655707/,51.01678,-4.20832,E,1.0986122886681098
618,Bieberg,NL,Bieberg NL,http://sws.geonames.org/2758991/,51.55914,4.79186,A,0.6931471805599453
619,Biel,CH,Biel CH,http://sws.geonames.org/2661513/,47.13713,7.24608,D,0
620,Bielefeld,DE,Bielefeld DE,http://sws.geonames.org/2949186/,52.03333,8.53333,B,0
621,Bierum,NL,Bierum NL,http://sws.geonames.org/2758983/,53.3825,6.85972,A,0
622,Bierutów,PL,Bierutów PL,http://sws.geonames.org/3103364/,51.12443,17.54607,I,2.70805020110221
623,Biervliet,NL,Biervliet NL,http://sws.geonames.org/2758980/,51.32833,3.68889,A,0.6931471805599453
624,Biessum,NL,Biessum NL,http://sws.geonames.org/2758970/,53.33333,6.89583,A,0
625,Biesterfeld,DE,Biesterfeld DE,http://sws.geonames.org/2949027/,51.87278,9.27315,B,0
626,Biezelinge,NL,Biezelinge NL,http://sws.geonames.org/2758965/,51.475,3.9625,A,0
627,Biezen,NL,Biezen NL,http://sws.geonames.org/2758963/,51.24667,3.46389,A,0
628,Bijlmermeer (polder),NL,Bijlmermeer (polder) NL,http://sws.geonames.org/2758946/,52.31667,4.96667,A,0.6931471805599453
629,Bilbao,ES,Bilbao ES,http://sws.geonames.org/3128026/,43.26271,-2.92528,G,0
630,Bilderdam,NL,Bilderdam NL,http://sws.geonames.org/2758933/,52.2125,4.725,A,0
631,Bildtzijl,NL,Bildtzijl NL,http://sws.geonames.org/2749155/,53.30048,5.71849,A,0
632,Billé,FR,Billé FR,http://sws.geonames.org/3032642/,48.28769,-1.24666,F,0
633,Billeben,DE,Billeben DE,http://sws.geonames.org/2948953/,51.26459,10.7381,D,1.9459101490553132
634,Billenhausen,DE,Billenhausen DE,http://sws.geonames.org/2948948/,48.27257,10.36354,D,0
635,Billerbeck,DE,Billerbeck DE,http://sws.geonames.org/2948944/,51.97829,7.29261,B,0
636,Billertshausen,DE,Billertshausen DE,http://sws.geonames.org/2948938/,50.74752,9.19841,D,0.6931471805599453
637,Billig,DE,Billig DE,http://sws.geonames.org/2948937/,50.63057,6.77769,D,0
638,Bilsen,DE,Bilsen DE,http://sws.geonames.org/2948902/,53.76667,9.88333,B,0
639,Bilsham,GB,Bilsham GB,http://sws.geonames.org/7299655/,51.5422,-0.77208,E,0
640,Bilshausen,DE,Bilshausen DE,http://sws.geonames.org/2948895/,51.62974,10.15859,D,0
641,Bilstein,DE,Bilstein DE,http://sws.geonames.org/2948884/,51.09473,8.02087,D,0
642,Bilt,NL,Bilt NL,http://sws.geonames.org/6544692/,51.1275,5.85417,A,0
643,Bilthoven,NL,Bilthoven NL,http://sws.geonames.org/2758927/,52.13,5.20139,A,0
644,Biltzheim,FR,Biltzheim FR,http://sws.geonames.org/3032611/,47.95815,7.38831,D,0
645,Bilzen,BE,Bilzen BE,http://sws.geonames.org/2801924/,50.87325,5.5184,A,0
646,Bilzingsleben,DE,Bilzingsleben DE,http://sws.geonames.org/2948874/,51.28333,11.06667,D,0
648,Binde,DE,Binde DE,http://sws.geonames.org/2948858/,52.85454,11.38487,B,0.6931471805599453
649,Bingen am Rhein,DE,Bingen am Rhein DE,http://sws.geonames.org/2948825/,49.96675,7.8992000000000004,D,0.6931471805599453
650,Birkenau,DE,Birkenau DE,http://sws.geonames.org/2948652/,49.5625,8.70694,D,0
651,Birkenfeld,DE,Birkenfeld DE,http://sws.geonames.org/2948598/,48.86667,8.63333,D,0
652,Birlenbach,FR,Birlenbach FR,http://sws.geonames.org/3032564/,48.97684,7.88029,D,0.6931471805599453
653,Bisingen,DE,Bisingen DE,http://sws.geonames.org/2948246/,48.31012,8.91738,D,0
654,Biskaje,ES,Biskaje ES,http://sws.geonames.org/3104469/,43.25,-2.91667,G,0
655,Bisschop,NL,Bisschop NL,http://sws.geonames.org/2758891/,53.05703,6.25809,A,1.3862943611198906
656,Bissen,NL,Bissen NL,http://sws.geonames.org/2758886/,50.78833,5.90139,A,0
657,Bissendorf,DE,Bissendorf DE,http://sws.geonames.org/2948211/,52.52374,9.75363,B,0
658,Bitgum,NL,Bitgum NL,http://sws.geonames.org/2759283/,53.23333,5.68333,A,0
659,Bladel,NL,Bladel NL,http://sws.geonames.org/2758878/,51.36833,5.22083,A,0
660,Blaesheim,FR,Blaesheim FR,http://sws.geonames.org/3032470/,48.50648,7.60923,D,0
661,Blankenberg,NL,Blankenberg NL,http://sws.geonames.org/6544780/,51.77917,5.83056,A,0
662,Blankenberge,BE,Blankenberge BE,http://sws.geonames.org/2801858/,51.31306,3.13227,A,0
663,Blankenburg,DE,Blankenburg DE,http://sws.geonames.org/2948071/,51.79025,10.95509,D,0
664,Blankenburg,NL,Blankenburg NL,http://sws.geonames.org/2758872/,51.9,4.25,A,0
665,Blankenese,DE,Blankenese DE,http://sws.geonames.org/2948066/,53.55698,9.8059,B,0
666,Blankenham,NL,Blankenham NL,http://sws.geonames.org/2758871/,52.76417,5.89583,A,0
667,Blaricum,NL,Blaricum NL,http://sws.geonames.org/2758868/,52.2725,5.24167,A,0
668,Blasheim,DE,Blasheim DE,http://sws.geonames.org/2947999/,52.30438,8.56796,B,0
669,Blaubeuren,DE,Blaubeuren DE,http://sws.geonames.org/2947949/,48.41215,9.78427,D,0
670,Blauw,NL,Blauw NL,http://sws.geonames.org/2758864/,53.1275,6.36806,A,0
671,Blauwkapel,NL,Blauwkapel NL,http://sws.geonames.org/2758850/,52.1125,5.15278,A,0
672,Bleiswijk,NL,Bleiswijk NL,http://sws.geonames.org/2758838/,52.01083,4.53194,A,0
673,Blekinge Län,SE,Blekinge Län SE,http://sws.geonames.org/2721357/,56.33333,15.33333,C,0
674,Blerick,NL,Blerick NL,http://sws.geonames.org/2758831/,51.37167,6.14861,A,0
675,Bleskensgraaf,NL,Bleskensgraaf NL,http://sws.geonames.org/2758825/,51.8725,4.78333,A,0
676,Blexen,DE,Blexen DE,http://sws.geonames.org/2947790/,53.53034,8.53235,B,0
677,Blija,NL,Blija NL,http://sws.geonames.org/2758820/,53.35193,5.86138,A,0
678,Blijham,NL,Blijham NL,http://sws.geonames.org/2758815/,53.10917,7.07639,A,0
679,Bloemberg,NL,Bloemberg NL,http://sws.geonames.org/2758807/,52.65167,6.35278,A,0
680,Bloemendaal,NL,Bloemendaal NL,http://sws.geonames.org/2758804/,52.4025,4.62222,A,0
681,Blois,FR,Blois FR,http://sws.geonames.org/3032213/,47.59432,1.32912,F,0
682,Blokker,NL,Blokker NL,http://sws.geonames.org/2744770/,52.66417,5.1,A,0.6931471805599453
683,Blokzijl,NL,Blokzijl NL,http://sws.geonames.org/2758777/,52.72667,5.96111,A,0
684,Blomberg,DE,Blomberg DE,http://sws.geonames.org/2947641/,51.94331,9.09067,B,1.0986122886681098
685,Bo'ness,GB,Bo'ness GB,http://sws.geonames.org/2655215/,56.01667,-3.61667,E,1.3862943611198906
686,Bobenhausen,DE,Bobenhausen DE,http://sws.geonames.org/2947468/,50.37156,9.03707,D,0.6931471805599453
687,Bobenheim-Roxheim,DE,Bobenheim-Roxheim DE,http://sws.geonames.org/2947465/,49.5875,8.35778,D,0
688,Bocholt,DE,Bocholt DE,http://sws.geonames.org/2947421/,51.83879,6.61531,A,0
689,Bochum,DE,Bochum DE,http://sws.geonames.org/2947416/,51.48165,7.21648,D,0
690,Bodeaux,FR,Bodeaux FR,http://sws.geonames.org/3031582/,44.84044,-0.5805,F,0
691,Bodegraven,NL,Bodegraven NL,http://sws.geonames.org/2758765/,52.0825,4.75,A,0
693,Bodenwerder,DE,Bodenwerder DE,http://sws.geonames.org/2947092/,51.97156,9.51931,B,0
694,Boderne,DK,Boderne DK,http://sws.geonames.org/2623881/,56.07922,12.53452,C,0
695,Bödingen,DE,Bödingen DE,http://sws.geonames.org/2947075/,50.78117,7.34217,D,0
696,Boechout,BE,Boechout BE,http://sws.geonames.org/2801743/,51.15959,4.49195,A,0
697,Boekelo,NL,Boekelo NL,http://sws.geonames.org/2758755/,52.20417,6.79861,A,1.0986122886681098
698,Boekelte,NL,Boekelte NL,http://sws.geonames.org/6697902/,52.92855,6.18219,A,0
699,Boekhorst,NL,Boekhorst NL,http://sws.geonames.org/2758749/,52.9734,6.29242,A,0
700,Boekhout,BE,Boekhout BE,http://sws.geonames.org/2801736/,50.74569,5.23327,A,0
701,Boer,NL,Boer NL,http://sws.geonames.org/2758747/,53.21585,5.56533,A,0
702,Bohemia,CZ,Bohemia CZ,https://www.wikidata.org/wiki/Q39193,50.08804,14.42076,D,0.6931471805599453
703,Böhme,DE,Böhme DE,http://sws.geonames.org/2946952/,52.78333,9.46667,B,0
704,Boijl,NL,Boijl NL,http://sws.geonames.org/2758453/,52.90921,6.19972,A,0
705,Boisheim,DE,Boisheim DE,http://sws.geonames.org/2946838/,51.27078,6.27306,D,0
706,Boitze,DE,Boitze DE,http://sws.geonames.org/2946830/,53.15,10.75,B,0
707,Boitzen,DE,Boitzen DE,http://sws.geonames.org/2946829/,53.3363,9.37484,B,3.367295829986474
708,Boitzenburg,DE,Boitzenburg DE,http://sws.geonames.org/2946828/,53.26403,13.60832,B,0.6931471805599453
709,Boizenburg,DE,Boizenburg DE,http://sws.geonames.org/2946821/,53.38153,10.72375,B,0
710,Bokhorst,NL,Bokhorst NL,http://sws.geonames.org/2758709/,51.46887,5.6842,A,0
711,Bokhoven,NL,Bokhoven NL,http://sws.geonames.org/2758708/,51.7375,5.23056,A,0
712,Bokkum,NL,Bokkum NL,http://sws.geonames.org/6639666/,53.06015,5.84387,A,0
713,Bolken,CH,Bolken CH,http://sws.geonames.org/6691368/,47.19123,7.66305,D,3.332204510175204
714,Bollebeek,BE,Bollebeek BE,http://sws.geonames.org/2801587/,50.92066,4.24232,A,0.6931471805599453
715,Bollenstreek,NL,Bollenstreek NL,http://sws.geonames.org/7302151/,52.26648,4.58954,A,0
716,Bologna,IT,Bologna IT,http://sws.geonames.org/3181928/,44.49381,11.33875,H,0
717,Bolsward,NL,Bolsward NL,http://sws.geonames.org/2758682/,53.06555,5.53176,A,0
718,Bóly,HU,Bóly HU,http://sws.geonames.org/3054828/,45.96722,18.51833,I,0
719,Bömberg,DE,Bömberg DE,http://sws.geonames.org/2946541/,51.06392,7.18015,D,0
720,Bömighausen,DE,Bömighausen DE,http://sws.geonames.org/2946530/,51.28466,8.75617,D,0
721,Bommelerwaard,NL,Bommelerwaard NL,http://sws.geonames.org/2758673/,51.76667,5.28333,A,0
722,Bommenede,NL,Bommenede NL,http://sws.geonames.org/2758670/,51.73333,3.93333,A,0
723,Bona,SE,Bona SE,http://sws.geonames.org/2720595/,58.64972,15.05,C,0
725,Bonn,DE,Bonn DE,http://sws.geonames.org/2946447/,50.73438,7.09549,D,0
726,Bonnen,NL,Bonnen NL,http://sws.geonames.org/2758656/,53.005,6.77778,A,0
727,Bonneville,FR,Bonneville FR,http://sws.geonames.org/3031679/,46.0802,6.40726,H,0
728,Bönnigheim,DE,Bönnigheim DE,http://sws.geonames.org/2946428/,49.04018,9.09386,D,0.6931471805599453
729,Boom,BE,Boom BE,http://sws.geonames.org/2801494/,51.09242,4.3717,A,0
730,Boord,NL,Boord NL,http://sws.geonames.org/2758634/,51.46917,5.52222,A,0
731,Boornzwaag over de Wielen,NL,Boornzwaag over de Wielen NL,http://sws.geonames.org/2758628/,52.95,5.75,A,0
732,Boppard,DE,Boppard DE,http://sws.geonames.org/2946366/,50.23085,7.58992,D,0
733,Borchen,DE,Borchen DE,http://sws.geonames.org/3207325/,51.66667,8.73333,D,0.6931471805599453
734,Borculo,NL,Borculo NL,http://sws.geonames.org/2758626/,52.11583,6.52222,A,0
735,Bordeaux,FR,Bordeaux FR,http://sws.geonames.org/3031582/,44.84044,-0.5805,F,1.0986122886681098
736,Bording Kirkeby,DK,Bording Kirkeby DK,http://sws.geonames.org/2623694/,56.16871,9.24384,C,0
737,Boren,DE,Boren DE,http://sws.geonames.org/2946316/,54.61506,9.82113,C,0
738,Borgå,FI,Borgå FI,http://sws.geonames.org/660561/,60.39233,25.66507,C,0
739,Borgdorf-Seedorf,DE,Borgdorf-Seedorf DE,http://sws.geonames.org/2946296/,54.16667,9.88333,B,0.6931471805599453
740,Borger,NL,Borger NL,http://sws.geonames.org/2758621/,52.92333,6.79306,A,0
741,Borgerhout,BE,Borgerhout BE,http://sws.geonames.org/2801471/,51.20957,4.43539,A,0
742,Borgharen,NL,Borgharen NL,http://sws.geonames.org/2758611/,50.8775,5.6875,A,0
743,Borgholm,SE,Borgholm SE,http://sws.geonames.org/2720437/,56.8793,16.65634,C,0
744,Borgholz,DE,Borgholz DE,http://sws.geonames.org/2946273/,51.62317,9.25935,D,1.6094379124341003
745,Borgholzhausen,DE,Borgholzhausen DE,http://sws.geonames.org/2946270/,52.10343,8.30211,B,0
746,Borkel,NL,Borkel NL,http://sws.geonames.org/2758604/,51.2975,5.44028,A,0
747,Borken,DE,Borken DE,http://sws.geonames.org/2946228/,51.84382,6.85774,B,0
748,Borkum,DE,Borkum DE,http://sws.geonames.org/2946207/,53.58114,6.69127,A,0
749,Börm,DE,Börm DE,http://sws.geonames.org/2946192/,54.4,9.38333,B,0
750,Born auf dem Darss,DE,Born auf dem Darss DE,http://sws.geonames.org/6551196/,54.4267,12.5469,B,0
751,Born,NL,Born NL,http://sws.geonames.org/2758602/,51.03167,5.80972,A,0
752,Borna,DE,Borna DE,http://sws.geonames.org/2946172/,51.12416,12.49639,D,0
753,Bornberg,DE,Bornberg DE,http://sws.geonames.org/2946146/,53.65486,9.20443,B,1.3862943611198906
754,Borne,NL,Borne NL,http://sws.geonames.org/2758598/,52.30136,6.7482,A,0
755,Börnecke,DE,Börnecke DE,http://sws.geonames.org/2946132/,51.82106,11.03074,D,0
756,Borneo,NL,Borneo NL,http://sws.geonames.org/6544867/,51.6775,5.775,A,0
757,Bornerbroek,NL,Bornerbroek NL,http://sws.geonames.org/2758595/,52.30917,6.65417,A,0
758,Bornheim,DE,Bornheim DE,http://sws.geonames.org/2946111/,50.76313,6.99089,D,0.6931471805599453
759,Bornholm,DK,Bornholm DK,http://sws.geonames.org/2623664/,55.12551,14.91394,C,0
760,Bornhöved,DE,Bornhöved DE,http://sws.geonames.org/2946100/,54.06667,10.23333,B,0
761,Borre,FR,Borre FR,http://sws.geonames.org/3031508/,50.7311,2.58482,A,1.791759469228055
762,Borsbeek,BE,Borsbeek BE,http://sws.geonames.org/2801438/,51.19661,4.48543,A,0
763,Borsfleth,DE,Borsfleth DE,http://sws.geonames.org/2946015/,53.83333,9.43333,B,0
764,Borssele,NL,Borssele NL,http://sws.geonames.org/2758587/,51.42333,3.73472,A,0
765,Bosch,NL,Bosch NL,http://sws.geonames.org/2758582/,51.27,5.59167,A,0
766,Bosenheim,DE,Bosenheim DE,http://sws.geonames.org/2945884/,49.84472,7.91382,D,0
767,Bösingfeld,DE,Bösingfeld DE,http://sws.geonames.org/2945863/,52.06935,9.12056,B,0
768,Boskoop,NL,Boskoop NL,http://sws.geonames.org/2758547/,52.075,4.65556,A,0.6931471805599453
769,Bossen,BE,Bossen BE,http://sws.geonames.org/2801369/,51.1,4.35,A,0
770,Boston,GB,Boston GB,http://sws.geonames.org/2655138/,52.97633,-0.02664,E,0
772,Bouillon,BE,Bouillon BE,http://sws.geonames.org/2801283/,49.79324,5.06703,F,0
773,Bouin,FR,Bouin FR,http://sws.geonames.org/3031222/,46.97314,-1.9983,F,0.6931471805599453
774,Boulogne,FR,Boulogne FR,http://sws.geonames.org/3031141/,46.79346,-1.3194,F,0
775,Boulogne-Billancourt,FR,Boulogne-Billancourt FR,http://sws.geonames.org/3031137/,48.83333,2.25,F,0.6931471805599453
776,Boulogne-sur-Mer,FR,Boulogne-sur-Mer FR,http://sws.geonames.org/3031133/,50.71667,1.61667,A,0
777,Bourbourg,FR,Bourbourg FR,http://sws.geonames.org/3031085/,50.94783,2.19576,A,0
778,Bourg-en-Bresse,FR,Bourg-en-Bresse FR,http://sws.geonames.org/3031009/,46.20574,5.2258,F,0
779,Bourges,FR,Bourges FR,http://sws.geonames.org/3031005/,47.08333,2.4,F,0
780,Bourgneuf,FR,Bourgneuf FR,http://sws.geonames.org/3030979/,46.16766,-1.02141,F,0
781,Bourgogne,FR,Bourgogne FR,http://sws.geonames.org/3030967/,47.25,4.16667,F,0.6931471805599453
782,Bourmont,FR,Bourmont FR,http://sws.geonames.org/3030917/,48.19334,5.58991,F,0
783,Bourseul,FR,Bourseul FR,http://sws.geonames.org/3030863/,48.48715,-2.25888,F,0
784,Bourtange,NL,Bourtange NL,http://sws.geonames.org/2758514/,53.01,7.19028,B,0
785,Boutersem,BE,Boutersem BE,http://sws.geonames.org/2801215/,50.83511,4.8345,A,0
786,Bouville,FR,Bouville FR,http://sws.geonames.org/3030725/,48.43157,2.28444,F,2.302585092994046
787,Boven Pekela,NL,Boven Pekela NL,http://sws.geonames.org/6544786/,53.03417,6.93333,A,0
788,Bovenhusen,DE,Bovenhusen DE,http://sws.geonames.org/2945721/,53.2252,7.32034,B,1.0986122886681098
789,Bovenkarspel,NL,Bovenkarspel NL,http://sws.geonames.org/2758498/,52.69667,5.24028,A,0
790,Bovenkerk,NL,Bovenkerk NL,http://sws.geonames.org/2758496/,51.975,4.7875,A,0
791,Bovenstad,NL,Bovenstad NL,http://sws.geonames.org/2758477/,51.93333,4.81667,A,0
792,Boxholm,SE,Boxholm SE,http://sws.geonames.org/2720037/,58.19719,15.05376,C,0
793,Boxmeer,NL,Boxmeer NL,http://sws.geonames.org/2758462/,51.64667,5.94722,A,0
794,Boxtel,NL,Boxtel NL,http://sws.geonames.org/2758460/,51.59083,5.32917,A,0
795,Bozum,NL,Bozum NL,http://sws.geonames.org/2758452/,53.08804,5.69521,A,0
796,Braakhuizen,NL,Braakhuizen NL,http://sws.geonames.org/2758449/,51.42614,5.56813,A,0.6931471805599453
797,Brabant (hertogdom),--,Brabant (hertogdom) --,https://www.wikidata.org/wiki/Q159856,50.85045,4.34878,A,0
798,Brackenheim,DE,Brackenheim DE,http://sws.geonames.org/2945591/,49.07787,9.06601,D,0.6931471805599453
799,Brackwede,DE,Brackwede DE,http://sws.geonames.org/2945583/,51.99038,8.50685,B,0.6931471805599453
800,Braga,PT,Braga PT,http://sws.geonames.org/2742032/,41.55032,-8.42005,G,0
801,Bragernes,NO,Bragernes NO,http://sws.geonames.org/3258687/,59.74727,10.20695,C,0
802,Brake,DE,Brake DE,http://sws.geonames.org/2945545/,53.33333,8.48333,B,0
803,Brakel,DE,Brakel DE,http://sws.geonames.org/2945542/,51.7175,9.18596,D,0
804,Brakel,NL,Brakel NL,http://sws.geonames.org/2758426/,51.8175,5.09028,A,0
805,Brakelsiek,DE,Brakelsiek DE,http://sws.geonames.org/2945538/,51.89133,9.16852,B,0
806,Brakenburg,DE,Brakenburg DE,http://sws.geonames.org/2945534/,53.5,9.88333,B,0.6931471805599453
807,Bramberg,DE,Bramberg DE,http://sws.geonames.org/2945512/,53.58753,7.58124,B,0
808,Bramel,DE,Bramel DE,http://sws.geonames.org/2945508/,53.553,8.70066,B,0.6931471805599453
809,Brandenburg an der Havel,DE,Brandenburg an der Havel DE,http://sws.geonames.org/2945358/,52.41667,12.55,B,0
810,Brandenburg,DE,Brandenburg DE,http://sws.geonames.org/2945356/,52.45905,13.01582,B,0
811,Brandt,NL,Brandt NL,http://sws.geonames.org/2758406/,51.13667,5.86111,A,0
812,Brandwijk,NL,Brandwijk NL,http://sws.geonames.org/2758405/,51.89083,4.81389,A,0.6931471805599453
813,Bratislava,SK,Bratislava SK,http://sws.geonames.org/3060972/,48.14816,17.10674,D,3.713572066704308
814,Braubach,DE,Braubach DE,http://sws.geonames.org/2945136/,50.2736,7.64508,D,1.3862943611198906
815,Braunfels,DE,Braunfels DE,http://sws.geonames.org/2945073/,50.51545,8.38918,D,0.6931471805599453
816,Braunschweig (hertogdom),DE,Braunschweig (hertogdom) DE,https://www.wikidata.org/wiki/Q556263,52.26594,10.52673,B,0.6931471805599453
817,Braunschweig,DE,Braunschweig DE,http://sws.geonames.org/2945024/,52.26594,10.52673,B,0
819,Brecht,BE,Brecht BE,http://sws.geonames.org/2801106/,51.35024,4.63829,A,0.6931471805599453
820,Breda,NL,Breda NL,http://sws.geonames.org/2758401/,51.58656,4.77596,A,0
821,Bredene-aan-Zee,BE,Bredene-aan-Zee BE,http://sws.geonames.org/3229618/,51.24588,2.96161,A,0
822,Bredevoort,NL,Bredevoort NL,http://sws.geonames.org/2758393/,51.94167,6.62083,A,0
823,Bredstedt,DE,Bredstedt DE,http://sws.geonames.org/2944879/,54.61868,8.96441,C,0
824,Bree,BE,Bree BE,http://sws.geonames.org/2801093/,51.14152,5.5969,A,1.0986122886681098
825,Breede,NL,Breede NL,http://sws.geonames.org/2758386/,53.38583,6.5375,A,0
826,Breedenbroek,NL,Breedenbroek NL,http://sws.geonames.org/2758382/,51.87333,6.47222,A,0.6931471805599453
827,Breeveld,NL,Breeveld NL,http://sws.geonames.org/2758366/,52.10417,4.93056,A,1.6094379124341003
828,Bregenz,AT,Bregenz AT,http://sws.geonames.org/2781503/,47.50311,9.7471,D,0
829,Breidenbach,DE,Breidenbach DE,http://sws.geonames.org/2944820/,50.88734,8.45748,D,0
830,Breil,FR,Breil FR,http://sws.geonames.org/3030390/,47.47512,0.15751,F,0
831,Breisach am Rhein,DE,Breisach am Rhein DE,http://sws.geonames.org/2944800/,48.03279,7.58294,D,0
832,Breisgau,DE,Breisgau DE,https://www.wikidata.org/wiki/Q690971,47.93333333,7.81666667,D,1.0986122886681098
833,Breitenburg,DE,Breitenburg DE,http://sws.geonames.org/2944627/,53.90572,9.57041,B,0
834,Breitenheim,DE,Breitenheim DE,http://sws.geonames.org/2944588/,49.7,7.63333,D,0.6931471805599453
835,Breitungen,DE,Breitungen DE,http://sws.geonames.org/2944440/,50.76355,10.32724,D,0
836,Brelen,DE,Brelen DE,http://sws.geonames.org/2944422/,51.40636,7.80359,D,0
837,Bremberg,NL,Bremberg NL,http://sws.geonames.org/2758349/,51.56667,4.68333,A,3.2188758248682006
838,Bremen (hertogdom),DE,Bremen (hertogdom) DE,https://www.wikidata.org/wiki/Q837128,53.07516,8.80777,B,0
839,Bremen (prinsaartsbisdom),DE,Bremen (prinsaartsbisdom) DE,https://www.wikidata.org/wiki/Q837128,53.07516,8.80777,B,0
840,Bremen,DE,Bremen DE,http://sws.geonames.org/2944388/,53.07516,8.80777,B,0
841,Bremerhaven,DE,Bremerhaven DE,http://sws.geonames.org/2944368/,53.55021,8.57673,B,0
842,Bremerhavn,DE,Bremerhavn DE,http://sws.geonames.org/6553021/,53.5545,8.5933,B,0
843,Bremervörde,DE,Bremervörde DE,http://sws.geonames.org/6553021/,53.5545,8.5933,B,0
844,Breskens,NL,Breskens NL,http://sws.geonames.org/2758341/,51.39583,3.55556,A,0
845,Breslau,PL,Breslau PL,http://sws.geonames.org/3081368/,51.1,17.03333,D,0
846,Brest,FR,Brest FR,http://sws.geonames.org/3030300/,48.39029,-4.48628,F,0
847,Bretagne,FR,Bretagne FR,http://sws.geonames.org/3030293/,48.16667,-2.83333,F,1.6094379124341003
848,Bretten,DE,Bretten DE,http://sws.geonames.org/2944200/,49.03685,8.70745,D,0
849,Brettenfeld,DE,Brettenfeld DE,http://sws.geonames.org/2944199/,49.25801,10.01999,D,0
850,Bretzingen,DE,Bretzingen DE,http://sws.geonames.org/3274968/,49.57666,9.48728,D,0
851,Breukelen,NL,Breukelen NL,http://sws.geonames.org/2758333/,52.17417,5.00139,A,0
852,Breukeleveen,NL,Breukeleveen NL,http://sws.geonames.org/2758329/,52.17583,5.06944,A,0
853,Briancon,FR,Briancon FR,http://sws.geonames.org/6446625/,44.89583,6.635,H,0
854,Bridlington,GB,Bridlington GB,http://sws.geonames.org/2654728/,54.08306,-0.19192,E,0
855,Brielle,NL,Brielle NL,http://sws.geonames.org/2758326/,51.90167,4.1625,A,0
856,Brigdamme,NL,Brigdamme NL,http://sws.geonames.org/2758319/,51.51583,3.60556,A,0
857,Brilon,DE,Brilon DE,http://sws.geonames.org/2944079/,51.39462,8.57146,D,0
858,Brinke,NL,Brinke NL,http://sws.geonames.org/2758315/,51.93824,6.67396,A,1.791759469228055
859,Brissac,FR,Brissac FR,http://sws.geonames.org/3029985/,43.87813,3.70343,F,0.6931471805599453
860,Bristol,GB,Bristol GB,http://sws.geonames.org/2654675/,51.45523,-2.59665,E,0
861,Brive-la-Gaillarde,FR,Brive-la-Gaillarde FR,http://sws.geonames.org/3029974/,45.15,1.53333,F,0
862,Brockhagen,DE,Brockhagen DE,http://sws.geonames.org/2943978/,51.99239,8.34379,B,0
863,Broek in Waterland,NL,Broek in Waterland NL,http://sws.geonames.org/2758258/,52.43417,4.99583,A,0
864,Broek op Langedijk,NL,Broek op Langedijk NL,http://sws.geonames.org/2758245/,52.67417,4.80556,A,0
865,Broekerhaven,NL,Broekerhaven NL,http://sws.geonames.org/2758279/,52.68833,5.25278,A,0
866,Broekhorn,NL,Broekhorn NL,http://sws.geonames.org/2758271/,52.6725,4.82083,A,0.6931471805599453
867,Broekhuizenvorst,NL,Broekhuizenvorst NL,http://sws.geonames.org/2758260/,51.495,6.15694,A,0
868,Broekoord,NL,Broekoord NL,http://sws.geonames.org/2758246/,52.75,5.2,A,0
869,Bromskirchen,DE,Bromskirchen DE,http://sws.geonames.org/2943783/,51.09363,8.6264,D,0
870,Bronckhorst,NL,Bronckhorst NL,http://sws.geonames.org/2758224/,52.07583,6.17917,A,0
871,Brongerga,NL,Brongerga NL,http://sws.geonames.org/2758225/,52.95,5.98333,A,0
872,Bronkhorst,NL,Bronkhorst NL,http://sws.geonames.org/2758224/,52.07583,6.17917,A,0
873,Bronnbach,DE,Bronnbach DE,http://sws.geonames.org/2943774/,49.7126,9.5464,D,0
874,Bronsfeld,DE,Bronsfeld DE,http://sws.geonames.org/2943751/,50.51931,6.44675,D,0
875,Brønstad,NO,Brønstad NO,http://sws.geonames.org/3159953/,64.23333,12.3,C,0
876,Brotterode,DE,Brotterode DE,http://sws.geonames.org/2943697/,50.82412,10.44446,D,0
877,Brouage,FR,Brouage FR,http://sws.geonames.org/3029897/,45.8665,-1.06961,F,0
878,Brouwershaven,NL,Brouwershaven NL,http://sws.geonames.org/2758213/,51.72667,3.9125,A,0
879,Bruchdorf,DE,Bruchdorf DE,http://sws.geonames.org/2943632/,53.23333,10.85,B,0
880,Bruchem,NL,Bruchem NL,http://sws.geonames.org/2758207/,51.78667,5.23611,A,0
881,Bruchhausen-Vilsen,DE,Bruchhausen-Vilsen DE,http://sws.geonames.org/2943587/,52.82931,8.99066,B,1.3862943611198906
882,Bruchsal,DE,Bruchsal DE,http://sws.geonames.org/2943560/,49.12426,8.59804,D,0.6931471805599453
883,Brug,NL,Brug NL,http://sws.geonames.org/2758204/,51.6,5.61667,A,0
884,Brugg,CH,Brugg CH,http://sws.geonames.org/2661374/,47.48096,8.20869,D,0
885,Brugge,BE,Brugge BE,http://sws.geonames.org/2800931/,51.20892,3.22424,A,0.6931471805599453
886,Bruinisse,NL,Bruinisse NL,http://sws.geonames.org/2758186/,51.66167,4.09444,A,0
887,Brumath,FR,Brumath FR,http://sws.geonames.org/3029771/,48.73014,7.7121,D,0
888,Brummen,NL,Brummen NL,http://sws.geonames.org/2758177/,52.09,6.15556,A,1.0986122886681098
889,Brunau,DE,Brunau DE,http://sws.geonames.org/2943278/,52.74814,11.46818,B,0
890,Brünen,DE,Brünen DE,http://sws.geonames.org/2943260/,51.72512,6.687,B,0
891,Brunsbüttel,DE,Brunsbüttel DE,http://sws.geonames.org/2943049/,53.89504,9.10484,B,0.6931471805599453
892,Brunssum,NL,Brunssum NL,http://sws.geonames.org/2758174/,50.94667,5.97083,A,0
893,Brussel,BE,Brussel BE,http://sws.geonames.org/2800866/,50.85045,4.34878,A,1.0986122886681098
894,Brzeg,PL,Brzeg PL,http://sws.geonames.org/3102459/,50.86079,17.4674,D,0
895,Bua,SE,Bua SE,http://sws.geonames.org/2718836/,57.2378,12.12187,C,0
896,Buchten,NL,Buchten NL,http://sws.geonames.org/2758167/,51.04333,5.80972,A,0
897,Bückeburg,DE,Bückeburg DE,http://sws.geonames.org/2942159/,52.26065,9.04939,B,0
898,Bucken,DE,Bucken DE,http://sws.geonames.org/2942154/,52.77876,9.13371,B,1.0986122886681098
899,Budel,NL,Budel NL,http://sws.geonames.org/2758166/,51.27167,5.575,A,0
900,Budenheim,DE,Budenheim DE,http://sws.geonames.org/2942087/,50.01667,8.16667,D,0
901,Büdingen,DE,Büdingen DE,http://sws.geonames.org/2942073/,50.29013,9.1114,D,0
903,Buer,DE,Buer DE,http://sws.geonames.org/2942056/,51.5774,7.0518,B,0
904,Buggenhout,BE,Buggenhout BE,http://sws.geonames.org/2800816/,51.0159,4.20173,A,0
905,Buiksloot,NL,Buiksloot NL,http://sws.geonames.org/2758159/,52.40807,4.91896,A,0
906,Buinen,NL,Buinen NL,http://sws.geonames.org/2758156/,52.93083,6.83611,A,0
907,Buitenpost,NL,Buitenpost NL,http://sws.geonames.org/2758131/,53.25166,6.14483,A,0
908,Buitensluis,NL,Buitensluis NL,http://sws.geonames.org/2749765/,51.73167,4.4375,A,0
909,Bülach,CH,Bülach CH,http://sws.geonames.org/2661338/,47.52197,8.54049,D,0
910,Bült,DE,Bült DE,http://sws.geonames.org/2941737/,53.44357,7.93733,B,0
911,Bunde,DE,Bunde DE,http://sws.geonames.org/2941694/,52.19837,8.58644,B,0
912,Bünde,DE,Bünde DE,http://sws.geonames.org/2941694/,52.19837,8.58644,B,0.6931471805599453
913,Bunne,NL,Bunne NL,http://sws.geonames.org/2758108/,53.1175,6.53333,A,1.3862943611198906
914,Bunnik,NL,Bunnik NL,http://sws.geonames.org/2758106/,52.06667,5.19861,A,0
915,Bunschoten,NL,Bunschoten NL,http://sws.geonames.org/2758104/,52.24304,5.37884,A,0
916,Bunschoten-Spakenburg,NL,Bunschoten-Spakenburg NL,http://sws.geonames.org/2758104/,52.24304,5.37884,A,0
917,Buren (graafschap),NL,Buren (graafschap) NL,https://www.wikidata.org/wiki/Q283330,51.9667,5.41667,A,0
918,Buren,NL,Buren NL,http://sws.geonames.org/2758097/,51.91167,5.33194,A,0
919,Burg Kniphausen,DE,Burg Kniphausen DE,http://sws.geonames.org/2927621/,53.56142,8.04371,B,0
920,Burgerbrug,NL,Burgerbrug NL,http://sws.geonames.org/2758089/,52.74833,4.70278,A,1.0986122886681098
921,Burgerveen,NL,Burgerveen NL,http://sws.geonames.org/2758085/,52.24,4.68194,A,0
922,Burgh,NL,Burgh NL,http://sws.geonames.org/2758081/,51.68917,3.73333,A,0
923,Burgsolms,DE,Burgsolms DE,http://sws.geonames.org/2941156/,50.54191,8.40411,D,0
924,Burgsteinfurt,DE,Burgsteinfurt DE,http://sws.geonames.org/2941103/,52.14839,7.33307,B,1.3862943611198906
925,Burgt,NL,Burgt NL,http://sws.geonames.org/2758076/,51.6075,5.68056,A,0
926,Burgum,NL,Burgum NL,http://sws.geonames.org/2759103/,53.19243,5.99009,A,0
927,Burgwerd,NL,Burgwerd NL,http://sws.geonames.org/2758075/,53.08799,5.54621,A,0
928,Burhave,DE,Burhave DE,http://sws.geonames.org/2941046/,53.57655,8.36594,B,0
929,Burum,NL,Burum NL,http://sws.geonames.org/2758073/,53.2734,6.22942,A,0
930,Buseck,DE,Buseck DE,http://sws.geonames.org/2957761/,50.62218,8.75322,D,0
931,Bussel,NL,Bussel NL,http://sws.geonames.org/2758068/,51.41917,5.71389,A,0
932,Bussum,NL,Bussum NL,http://sws.geonames.org/2758064/,52.27333,5.16111,A,1.0986122886681098
933,Butjadingen,DE,Butjadingen DE,http://sws.geonames.org/3336894/,53.54722,8.335,B,0
934,Butzbach,DE,Butzbach DE,http://sws.geonames.org/2940512/,50.43395,8.67122,D,0
935,Buurmalsen,NL,Buurmalsen NL,http://sws.geonames.org/2758052/,51.89167,5.29444,A,0
936,Buxtehude,DE,Buxtehude DE,http://sws.geonames.org/2940451/,53.46716,9.68636,B,0
937,Bydgoszcz,PL,Bydgoszcz PL,http://sws.geonames.org/3102014/,53.1235,18.00762,B,0
938,Bylerward,DE,Bylerward DE,http://sws.geonames.org/2940439/,51.78333,6.28333,A,0
939,Bytom,PL,Bytom PL,http://sws.geonames.org/3101950/,50.34802,18.93282,I,0
941,Cadier en Keer,NL,Cadier en Keer NL,http://sws.geonames.org/2758035/,50.82833,5.76528,A,0
942,Cádiz,ES,Cádiz ES,http://sws.geonames.org/6356927/,36.50088,-6.26843,G,0
943,Cadzand,NL,Cadzand NL,http://sws.geonames.org/2758033/,51.36833,3.40833,A,0
944,Caen,FR,Caen FR,http://sws.geonames.org/3029241/,49.18585,-0.35912,F,0
945,Cahors,FR,Cahors FR,http://sws.geonames.org/3029213/,44.4491,1.43663,F,0
946,Calais,FR,Calais FR,http://sws.geonames.org/3029162/,50.95194,1.85635,A,0.6931471805599453
947,Calbe,DE,Calbe DE,http://sws.geonames.org/2940419/,51.90668,11.77478,D,0.6931471805599453
949,Calenberg (vorstendom),DE,Calenberg (vorstendom) DE,https://www.wikidata.org/wiki/Q565812,52.37052,9.73322,B,0
950,Callantsoog,NL,Callantsoog NL,http://sws.geonames.org/2758027/,52.84,4.69583,A,0
951,Cambrai,FR,Cambrai FR,http://sws.geonames.org/3029030/,50.16667,3.23333,F,1.6094379124341003
952,Cambridge,GB,Cambridge GB,http://sws.geonames.org/2653941/,52.2,0.11667,E,0
953,Camperduin,NL,Camperduin NL,http://sws.geonames.org/2758020/,52.725,4.65139,A,0
956,Canet de Mar,ES,Canet de Mar ES,http://sws.geonames.org/3126584/,41.59054,2.58116,G,0
957,Cannes,FR,Cannes FR,http://sws.geonames.org/3028808/,43.55135,7.01275,F,0
958,Canterbury,GB,Canterbury GB,http://sws.geonames.org/2653877/,51.27904,1.07992,E,0
959,Canton Appenzell,CH,Canton Appenzell CH,https://www.wikidata.org/wiki/Q688257,47.346111111111,9.3419444444444,D,0
960,Canton Basel,CH,Canton Basel CH,https://www.wikidata.org/wiki/Q12146,47.55839,7.57327,D,0
961,Canton Bern,CH,Canton Bern CH,http://sws.geonames.org/2661551/,46.87251,7.59563,D,0
962,Canton de Berne,CH,Canton de Berne CH,http://sws.geonames.org/2661551/,46.87251,7.59563,D,0
963,Canton de Fribourg,CH,Canton de Fribourg CH,http://sws.geonames.org/2660717/,46.70834,7.10311,D,0
964,Canton du Valais,CH,Canton du Valais CH,http://sws.geonames.org/2658205/,46.22925,7.45972,D,0
965,Canton Fribourg,CH,Canton Fribourg CH,http://sws.geonames.org/2660717/,46.70834,7.10311,D,0
966,Canton Zürich,CH,Canton Zürich CH,https://www.wikidata.org/wiki/Q11943,47.41667,8.66667,D,0
967,Cap Corse,FR,Cap Corse FR,http://sws.geonames.org/3023516/,42.98302,9.40232,H,0
969,Capbreton,FR,Capbreton FR,http://sws.geonames.org/3028745/,43.64216,-1.42816,F,0
972,Capelle aan den IJssel,NL,Capelle aan den IJssel NL,http://sws.geonames.org/2758012/,51.92917,4.57778,A,0
973,Capelle,NL,Capelle NL,http://sws.geonames.org/2758013/,51.69167,4.98472,A,0
974,Capua,IT,Capua IT,http://sws.geonames.org/3180601/,41.10519,14.21269,H,0
975,Carcasonne,FR,Carcasonne FR,http://sws.geonames.org/3028641/,43.21351,2.35162,F,1.0986122886681098
976,Carcasson,FR,Carcasson FR,http://sws.geonames.org/3028641/,43.21351,2.35162,F,1.0986122886681098
977,Cardiff,GB,Cardiff GB,http://sws.geonames.org/2653822/,51.48,-3.18,E,3.9512437185814275
978,Carentan,FR,Carentan FR,http://sws.geonames.org/3028610/,49.30312,-1.24806,F,0
980,Carlisle,GB,Carlisle GB,http://sws.geonames.org/2653775/,54.8951,-2.9382,E,0.6931471805599453
981,Carolinensiel,DE,Carolinensiel DE,http://sws.geonames.org/2940261/,53.69062,7.8013,B,3.1780538303479458
982,Carpentras,FR,Carpentras FR,http://sws.geonames.org/3028542/,44.05,5.05,F,0
983,Carron,GB,Carron GB,http://sws.geonames.org/2653669/,56.02611,-3.79251,E,1.6094379124341003
984,Cartagena,ES,Cartagena ES,http://sws.geonames.org/2520058/,37.60512,-0.98623,G,0
986,Casalmaggiore,IT,Casalmaggiore IT,http://sws.geonames.org/3180177/,44.98981,10.42055,H,1.6094379124341003
987,Castéra-Verduzan,FR,Castéra-Verduzan FR,http://sws.geonames.org/3028307/,43.80554,0.43061,F,0
988,Casteren,NL,Casteren NL,http://sws.geonames.org/2757993/,51.39667,5.2375,A,0
989,Castilië,ES,Castilië ES,http://sws.geonames.org/3125826/,41,-3.5,G,0
990,Castres,FR,Castres FR,http://sws.geonames.org/3028263/,43.6,2.25,F,0
991,Castricum,NL,Castricum NL,http://sws.geonames.org/2757991/,52.54833,4.66944,A,1.0986122886681098
992,Castrop,DE,Castrop DE,http://sws.geonames.org/2940231/,51.55657,7.31155,B,0
993,Catalonia,ES,Catalonia ES,http://sws.geonames.org/3336901/,41.82046,1.86768,G,0
994,Cavan,IE,Cavan IE,http://sws.geonames.org/2965535/,53.99083,-7.36056,E,0
995,Celle,DE,Celle DE,http://sws.geonames.org/2940213/,52.62264,10.08047,B,0
996,Ceske Budejovice,CZ,Ceske Budejovice CZ,http://sws.geonames.org/3077916/,48.97447,14.47434,D,0
997,Cette,FR,Cette FR,http://sws.geonames.org/3027757/,42.93333,-0.58333,F,0
999,Chaam,NL,Chaam NL,http://sws.geonames.org/2757969/,51.50583,4.86111,A,0
1000,Châbons,FR,Châbons FR,http://sws.geonames.org/3027696/,45.44093,5.4275,F,0
1001,Chalons-sur-Saône,FR,Chalons-sur-Saône FR,http://sws.geonames.org/3027484/,46.78333,4.85,F,0
1002,Chambéry,FR,Chambéry FR,http://sws.geonames.org/3027422/,45.56465,5.92645,F,0
1003,Chambord,FR,Chambord FR,http://sws.geonames.org/3027365/,47.6162,1.51667,F,1.3862943611198906
1004,Chamborigaud,FR,Chamborigaud FR,http://sws.geonames.org/3027361/,44.30572,3.97138,F,0
1005,Champagne,FR,Champagne FR,http://sws.geonames.org/3027258/,49,4.5,F,1.0986122886681098
1007,Chardonnay,FR,Chardonnay FR,http://sws.geonames.org/3026673/,46.50997,4.86107,F,0
1008,Charentes,FR,Charentes FR,http://sws.geonames.org/3026646/,45.70598,0.18162,F,0
1009,Charleroi,BE,Charleroi BE,http://sws.geonames.org/2800481/,50.41136,4.44448,F,0
1011,Charlestown,GB,Charlestown GB,http://sws.geonames.org/2653335/,50.33286,-4.75811,E,0
1012,Charleville,FR,Charleville FR,http://sws.geonames.org/3026613/,49.7685,4.72487,F,0
1013,Charlois,BE,Charlois BE,http://sws.geonames.org/2800482/,50.413,4.44654,F,0
1014,Charlois,NL,Charlois NL,http://sws.geonames.org/2757963/,51.88984,4.46989,A,0
1015,Chartres,FR,Chartres FR,http://sws.geonames.org/3026467/,48.44685,1.48925,F,0
1016,Château-Thierry,FR,Château-Thierry FR,http://sws.geonames.org/3026194/,49.05,3.4,F,0.6931471805599453
1017,Châteauneuf-sur-Loire,FR,Châteauneuf-sur-Loire FR,http://sws.geonames.org/3026222/,47.86575,2.21903,F,0
1018,Châtelet,BE,Châtelet BE,http://sws.geonames.org/2800448/,50.40338,4.52826,F,0
1019,Chatham,GB,Chatham GB,http://sws.geonames.org/2653305/,51.37891,0.52786,E,0
1020,Châtillon-sur-Seine,FR,Châtillon-sur-Seine FR,http://sws.geonames.org/3026046/,47.85851,4.57375,F,0
1021,Chaudfontaine,BE,Chaudfontaine BE,http://sws.geonames.org/2800438/,50.5828,5.6341,F,0
1022,Chaumont,FR,Chaumont FR,http://sws.geonames.org/3025892/,48.11121,5.14134,F,0
1023,Chaumont-sur-Loire,FR,Chaumont-sur-Loire FR,http://sws.geonames.org/3025876/,47.48108,1.18929,F,0
1024,Chaves,PT,Chaves PT,http://sws.geonames.org/2740761/,41.74019,-7.46879,G,0
1025,Chemnitz,DE,Chemnitz DE,http://sws.geonames.org/2940132/,50.8357,12.92922,D,1.6094379124341003
1026,Chemnitz-Klaffenbach,DE,Chemnitz-Klaffenbach DE,http://sws.geonames.org/2890128/,50.7593,12.90676,D,0
1027,Chenaux,CH,Chenaux CH,http://sws.geonames.org/8533274/,46.49575,6.73015,D,0
1028,Cherbourg-Octeville,FR,Cherbourg-Octeville FR,http://sws.geonames.org/3025466/,49.63984,-1.61636,F,0
1029,Chester,GB,Chester GB,http://sws.geonames.org/2653228/,53.1905,-2.89189,E,0
1030,Cheverny,FR,Cheverny FR,http://sws.geonames.org/3025344/,47.50079,1.45951,F,0
1031,Chevroux,FR,Chevroux FR,http://sws.geonames.org/3025278/,46.38007,4.9476,F,0
1032,Chimay,BE,Chimay BE,http://sws.geonames.org/2800325/,50.04856,4.31712,F,0
1034,Chocim,PL,Chocim PL,http://sws.geonames.org/3101708/,51.85153,18.55788,I,0
1035,Choisy-le-Roi,FR,Choisy-le-Roi FR,http://sws.geonames.org/3025055/,48.76846,2.41874,F,0
1036,Chojna,PL,Chojna PL,http://sws.geonames.org/3101675/,52.96389,14.42797,B,0
1037,Chojnice,PL,Chojnice PL,http://sws.geonames.org/3101672/,53.69554,17.55701,B,0
1039,Chomutov,CZ,Chomutov CZ,http://sws.geonames.org/3077685/,50.46048,13.41779,D,0
1040,Chorin,DE,Chorin DE,http://sws.geonames.org/2940119/,52.90197,13.87153,B,0
1041,Chorzów,PL,Chorzów PL,http://sws.geonames.org/3101619/,50.30582,18.9742,I,2.0794415416798357
1042,Christianshavn,DK,Christianshavn DK,http://sws.geonames.org/2623181/,55.67383,12.59541,C,0
1043,Chur,CH,Chur CH,http://sws.geonames.org/2661169/,46.84986,9.53287,D,0
1045,Civitavecchia,IT,Civitavecchia IT,http://sws.geonames.org/3178587/,42.09325,11.79674,H,0
1046,Clamecy,FR,Clamecy FR,http://sws.geonames.org/3024782/,47.45,3.51667,F,0
1047,Clausthal-Zellerfeld,DE,Clausthal-Zellerfeld DE,http://sws.geonames.org/2939995/,51.80949,10.33821,D,0
1048,Cleebourg,FR,Cleebourg FR,http://sws.geonames.org/3024689/,49.00342,7.89127,D,0.6931471805599453
1049,Cleebronn,DE,Cleebronn DE,http://sws.geonames.org/2939990/,49.045,9.03694,D,0
1050,Clérac,FR,Clérac FR,http://sws.geonames.org/3024666/,45.18333,-0.21667,F,0
1051,Clermond-Ferrand,FR,Clermond-Ferrand FR,http://sws.geonames.org/3024635/,45.77966,3.08628,F,1.0986122886681098
1052,Clermont,FR,Clermont FR,http://sws.geonames.org/3024643/,49.38333,2.4,F,0
1053,Clermont-Ferrand,FR,Clermont-Ferrand FR,http://sws.geonames.org/3024635/,45.77966,3.08628,F,0
1054,Clichy,FR,Clichy FR,http://sws.geonames.org/3024597/,48.90018,2.30952,F,0
1055,Clinge,NL,Clinge NL,http://sws.geonames.org/2757951/,51.27083,4.08889,A,0
1056,Cloppenburg,DE,Cloppenburg DE,http://sws.geonames.org/2939969/,52.84754,8.045,B,0
1057,Cluj-Napoca,RO,Cluj-Napoca RO,http://sws.geonames.org/681290/,46.76667,23.6,I,0
1058,Cluny,FR,Cluny FR,http://sws.geonames.org/3024534/,46.43318,4.65845,F,0
1059,Coburg,DE,Coburg DE,http://sws.geonames.org/2939951/,50.25937,10.96384,D,0
1060,Cochem,DE,Cochem DE,http://sws.geonames.org/2939949/,50.14511,7.16379,D,0.6931471805599453
1062,Coesfeld,DE,Coesfeld DE,http://sws.geonames.org/2939945/,51.94349,7.16809,B,1.3862943611198906
1063,Coevorden,NL,Coevorden NL,http://sws.geonames.org/2757937/,52.66103,6.74046,A,1.0986122886681098
1064,Coimbra,PT,Coimbra PT,http://sws.geonames.org/2740637/,40.20564,-8.41955,G,0.6931471805599453
1065,Colchester,GB,Colchester GB,http://sws.geonames.org/2652618/,51.88921,0.90421,E,0
1066,Coldam,DE,Coldam DE,http://sws.geonames.org/2939937/,53.20745,7.40414,B,0
1067,Colditz,DE,Colditz DE,http://sws.geonames.org/2939927/,51.12821,12.80295,D,0
1068,Colijnsplaat,NL,Colijnsplaat NL,http://sws.geonames.org/2757931/,51.59917,3.84861,A,0
1069,Colmar,FR,Colmar FR,http://sws.geonames.org/3024297/,48.07871,7.3554,D,0
1071,Combrai,FR,Combrai FR,http://sws.geonames.org/3024130/,48.94924,-0.43878,F,0
1072,Como,IT,Como IT,http://sws.geonames.org/3178229/,45.80819,9.0832,H,0
1073,Compiègne,FR,Compiègne FR,http://sws.geonames.org/3024066/,49.41794,2.82606,F,0
1074,Condé-Northen,FR,Condé-Northen FR,http://sws.geonames.org/3023964/,49.15374,6.43027,F,0.6931471805599453
1075,Contwig,DE,Contwig DE,http://sws.geonames.org/2939870/,49.25,7.43333,D,0
1076,Copenhagen,DK,Copenhagen DK,http://sws.geonames.org/2618425/,55.67594,12.56553,C,0
1077,Coppenbrügge,DE,Coppenbrügge DE,http://sws.geonames.org/2939862/,52.11852,9.5487,B,0
1078,Corfu,GR,Corfu GR,http://sws.geonames.org/2463679/,39.62069,19.91975,I,0
1079,Cork,IE,Cork IE,http://sws.geonames.org/2965140/,51.89797,-8.47061,E,1.3862943611198906
1080,Corle,NL,Corle NL,http://sws.geonames.org/2744331/,51.97226,6.72544,A,0
1081,Cornwall,GB,Cornwall GB,http://sws.geonames.org/11609027/,50.40303,-4.83416,E,0
1083,Corsica,FR,Corsica FR,http://sws.geonames.org/3023518/,42.04062,9.0136,H,1.0986122886681098
1084,Corsica Island,FR,Corsica Island FR,http://sws.geonames.org/3023518/,42.04062,9.0136,H,0
1085,Corvey,DE,Corvey DE,https://www.wikidata.org/wiki/Q15130492,51.77777778,9.41,B,0
1086,Cothen,NL,Cothen NL,http://sws.geonames.org/2757899/,51.99667,5.30833,A,0.6931471805599453
1087,Cottbus,DE,Cottbus DE,http://sws.geonames.org/2939811/,51.75769,14.32888,D,0.6931471805599453
1088,County of Moers,DE,County of Moers DE,https://www.wikidata.org/wiki/Q328928,51.45342,6.6326,B,0
1089,County of Oldenburg,DE,County of Oldenburg DE,https://www.wikidata.org/wiki/Q170390,53.14118,8.21467,B,0.6931471805599453
1090,Courbevoie,FR,Courbevoie FR,http://sws.geonames.org/3023141/,48.89672,2.25666,F,0
1091,Courland,LV,Courland LV,https://www.wikidata.org/wiki/Q191071,56.65,23.71278,B,0
1092,Crail,GB,Crail GB,http://sws.geonames.org/2652102/,56.26042,-2.62676,E,1.0986122886681098
1093,Crailsheim,DE,Crailsheim DE,http://sws.geonames.org/2939797/,49.13444,10.07193,D,0
1094,Cranenburg,DE,Cranenburg DE,http://sws.geonames.org/2884779/,51.78333,6.01667,A,0
1095,Cremona,IT,Cremona IT,http://sws.geonames.org/3177838/,45.13325,10.02129,H,0
1096,Creteil,FR,Creteil FR,http://sws.geonames.org/6452018/,48.79056,2.46194,F,0
1097,Criqueville-en-Bessin,FR,Criqueville-en-Bessin FR,http://sws.geonames.org/3022465/,49.3777,-1.00139,F,0
1098,Cromer,GB,Cromer GB,http://sws.geonames.org/2651930/,52.93123,1.29892,E,1.3862943611198906
1099,Crooswijk,NL,Crooswijk NL,http://sws.geonames.org/2747891/,51.9225,4.47917,A,0
1100,Crossen an der Elster,DE,Crossen an der Elster DE,http://sws.geonames.org/2883557/,50.97494,11.9781,D,0
1101,Cuijk,NL,Cuijk NL,http://sws.geonames.org/2757874/,51.73083,5.87917,A,0
1102,Culemborg,NL,Culemborg NL,http://sws.geonames.org/2757872/,51.955,5.22778,A,0
1103,Cullen,GB,Cullen GB,http://sws.geonames.org/2651753/,57.69045,-2.81818,E,0
1104,Cumberland,GB,Cumberland GB,http://sws.geonames.org/2651716/,54.75,-3,E,1.0986122886681098
1106,Cuxhaven,DE,Cuxhaven DE,http://sws.geonames.org/2939658/,53.87176,8.69087,B,0
1108,Czaplinek,PL,Czaplinek PL,http://sws.geonames.org/3101204/,53.55775,16.23333,B,0.6931471805599453
1109,Częstochowa,PL,Częstochowa PL,http://sws.geonames.org/3100946/,50.79646,19.12409,I,0
1110,Dachau,DE,Dachau DE,http://sws.geonames.org/2939623/,48.26,11.43402,D,3.1780538303479458
1111,Dačice,CZ,Dačice CZ,http://sws.geonames.org/3077304/,49.08154,15.43727,D,0
1112,Dagebüll,DE,Dagebüll DE,http://sws.geonames.org/2939489/,54.72928,8.70083,C,0
1113,Dahlem,DE,Dahlem DE,http://sws.geonames.org/2939442/,50.38607,6.54768,D,0
1114,Dahn,DE,Dahn DE,http://sws.geonames.org/2939370/,49.15098,7.77843,D,0
1115,Dale,NL,Dale NL,http://sws.geonames.org/2757860/,51.9425,6.56528,A,0
1116,Dalen,NL,Dalen NL,http://sws.geonames.org/2757857/,52.69917,6.75556,A,0
1117,Dalfsen,NL,Dalfsen NL,http://sws.geonames.org/2757850/,52.51167,6.25694,A,0
1119,Damgarten,DE,Damgarten DE,http://sws.geonames.org/3210687/,54.25801,12.4724,B,0
1120,Damme,BE,Damme BE,http://sws.geonames.org/2799885/,51.25147,3.28144,A,0
1121,Damme,DE,Damme DE,http://sws.geonames.org/2939167/,52.52157,8.19793,B,1.0986122886681098
1122,Dammstedt,DE,Dammstedt DE,http://sws.geonames.org/2939103/,54.22619,9.66188,B,2.6390573296152584
1123,Damp,DE,Damp DE,http://sws.geonames.org/2939088/,54.58333,9.98333,C,0
1124,Dampierre-en-Burly,FR,Dampierre-en-Burly FR,http://sws.geonames.org/3021829/,47.76143,2.51962,F,0
1125,Damwoude,NL,Damwoude NL,http://sws.geonames.org/2757838/,53.29046,5.99785,A,0
1126,Dändorf,DE,Dändorf DE,http://sws.geonames.org/2939065/,54.27319,12.37249,B,0
1127,Dangeau,FR,Dangeau FR,http://sws.geonames.org/3021777/,48.20826,1.28603,F,0
1128,Dannenberg,DE,Dannenberg DE,http://sws.geonames.org/2938991/,53.0967,11.09001,B,2.0794415416798357
1129,Dantumawoude,NL,Dantumawoude NL,http://sws.geonames.org/2757833/,53.3,6.01667,A,5.41610040220442
1130,Danzig,PL,Danzig PL,http://sws.geonames.org/3099434/,54.35205,18.64637,B,0.6931471805599453
1131,Darłowo,PL,Darłowo PL,http://sws.geonames.org/3100637/,54.42095,16.4107,B,1.6094379124341003
1132,Darmstadt,DE,Darmstadt DE,http://sws.geonames.org/2938913/,49.87167,8.65027,D,0
1133,Dartmouth,GB,Dartmouth GB,http://sws.geonames.org/2651498/,50.3522,-3.5794,E,1.0986122886681098
1134,Dassel,DE,Dassel DE,http://sws.geonames.org/2938813/,51.80179,9.68904,B,1.3862943611198906
1135,Daun,DE,Daun DE,http://sws.geonames.org/2938714/,50.19716,6.82942,D,0
1136,Dauphine,FR,Dauphine FR,http://sws.geonames.org/3021686/,45,5.25,F,0
1137,De Beemster,NL,De Beemster NL,http://sws.geonames.org/2757799/,52.558,4.91405,A,0.6931471805599453
1138,De Belt,NL,De Belt NL,http://sws.geonames.org/2757797/,52.63833,6.53889,A,1.791759469228055
1139,De Berken,NL,De Berken NL,http://sws.geonames.org/2757789/,51.42,5.76806,A,0
1140,De Bilt,NL,De Bilt NL,http://sws.geonames.org/2757783/,52.11,5.18056,A,0.6931471805599453
1141,De Blesse,NL,De Blesse NL,http://sws.geonames.org/2757773/,52.8428,6.04111,A,0
1142,De Briel,NL,De Briel NL,http://sws.geonames.org/2757739/,51.63333,4.7,A,0.6931471805599453
1143,De Elft,NL,De Elft NL,http://sws.geonames.org/2757663/,51.75,5.73056,A,0
1144,De Engel,NL,De Engel NL,http://sws.geonames.org/2757657/,52.24167,4.5375,A,0
1145,De Glip,NL,De Glip NL,http://sws.geonames.org/2757627/,52.33083,4.61111,A,0
1146,De Groe,NL,De Groe NL,http://sws.geonames.org/2757616/,51.48083,3.90417,A,1.3862943611198906
1147,De Groep,NL,De Groep NL,http://sws.geonames.org/2757613/,52.05167,5.50417,A,0.6931471805599453
1148,De Haan,BE,De Haan BE,http://sws.geonames.org/2799779/,51.27261,3.03446,A,0
1149,De Heen,NL,De Heen NL,http://sws.geonames.org/2757574/,51.6075,4.27083,A,0
1150,De Hoelm,NL,De Hoelm NL,http://sws.geonames.org/2757532/,52.89167,4.94861,A,0
1152,De Hoeven,NL,De Hoeven NL,http://sws.geonames.org/2757529/,51.7075,5.17917,A,0.6931471805599453
1153,De Holm,NL,De Holm NL,http://sws.geonames.org/2757523/,53.16917,6.34444,A,0
1154,De Jouwer,NL,De Jouwer NL,http://sws.geonames.org/2757471/,53.2075,6.30417,A,0.6931471805599453
1155,De Kiel,NL,De Kiel NL,http://sws.geonames.org/2757451/,52.86333,6.74861,A,3.6635616461296463
1156,De Klem,NL,De Klem NL,http://sws.geonames.org/2757437/,51.73333,4.51389,A,0.6931471805599453
1157,De Klinge,BE,De Klinge BE,http://sws.geonames.org/2799728/,51.25627,4.09041,A,0
1158,De Koog,NL,De Koog NL,http://sws.geonames.org/2757417/,53.0975,4.76111,A,0
1159,De Kwakel,NL,De Kwakel NL,http://sws.geonames.org/2757379/,52.23917,4.79306,A,0
1160,De Lier,NL,De Lier NL,http://sws.geonames.org/2757336/,51.975,4.24861,A,0
1161,De Mars,NL,De Mars NL,http://sws.geonames.org/2757307/,51.95167,5.53333,A,0
1162,De Meele,NL,De Meele NL,http://sws.geonames.org/2757300/,52.58667,6.25139,A,0
1163,De Meern,NL,De Meern NL,http://sws.geonames.org/2757295/,52.08167,5.03611,A,0
1164,De Nes,NL,De Nes NL,http://sws.geonames.org/2757227/,53.08083,4.86111,A,0
1165,De Rijp,NL,De Rijp NL,http://sws.geonames.org/2757095/,52.55667,4.84583,A,0
1166,De Schiphorst,NL,De Schiphorst NL,http://sws.geonames.org/2747541/,52.68167,6.25,A,0.6931471805599453
1167,De Stad,NL,De Stad NL,http://sws.geonames.org/2757044/,51.50279,5.32897,A,0
1168,De Steeg,NL,De Steeg NL,http://sws.geonames.org/2757041/,52.02,6.06111,A,0
1169,De Streek,NL,De Streek NL,http://sws.geonames.org/2757034/,53.40833,6.63889,A,0.6931471805599453
1170,De Vecht,NL,De Vecht NL,http://sws.geonames.org/2756991/,52.25833,6.03889,A,0
1171,De Velde,NL,De Velde NL,http://sws.geonames.org/2756989/,52.62167,6.09028,A,0
1172,De Waal,NL,De Waal NL,http://sws.geonames.org/2756962/,53.0725,4.82361,A,0
1173,De Weel,NL,De Weel NL,http://sws.geonames.org/2756953/,52.7325,4.84583,A,0
1174,De Wijk,NL,De Wijk NL,http://sws.geonames.org/2756936/,52.67333,6.29028,A,0
1175,De Wind,NL,De Wind NL,http://sws.geonames.org/2756931/,51.57417,5.68472,A,0
1176,De Woude,NL,De Woude NL,http://sws.geonames.org/2756922/,52.54667,4.77361,A,0
1177,Deal,GB,Deal GB,http://sws.geonames.org/2651468/,51.22322,1.40432,E,0
1178,Dęblin,PL,Dęblin PL,http://sws.geonames.org/773357/,51.55912,21.84829,I,0
1179,Debrecen,HU,Debrecen HU,http://sws.geonames.org/721472/,47.53333,21.63333,I,0
1180,Dedesdorp aan de Weser,DE,Dedesdorp aan de Weser DE,http://sws.geonames.org/2938609/,53.44458,8.50408,B,1.9459101490553132
1181,Deelen,NL,Deelen NL,http://sws.geonames.org/2757667/,52.0675,5.89583,A,0
1182,Deerlijk,BE,Deerlijk BE,http://sws.geonames.org/2799797/,50.85337,3.35416,A,0
1183,Deest,NL,Deest NL,http://sws.geonames.org/2757651/,51.89,5.66667,A,0
1184,Deil,NL,Deil NL,http://sws.geonames.org/2757478/,51.88417,5.24306,A,0
1185,Deilingen,DE,Deilingen DE,http://sws.geonames.org/2938460/,48.1741,8.78533,D,0
1186,Deinum,NL,Deinum NL,http://sws.geonames.org/2757475/,53.19182,5.72431,A,0
1187,Deinze,BE,Deinze BE,http://sws.geonames.org/2799746/,50.98175,3.53096,A,0.6931471805599453
1188,Delbrück,DE,Delbrück DE,http://sws.geonames.org/2938389/,51.76503,8.56223,B,0
1189,Delden,NL,Delden NL,http://sws.geonames.org/2757370/,52.26,6.71111,A,4.04305126783455
1190,Delfgauw,NL,Delfgauw NL,http://sws.geonames.org/2757349/,52.0075,4.39583,A,0
1191,Delfshaven,NL,Delfshaven NL,http://sws.geonames.org/2757347/,51.90488,4.45315,A,0
1192,Delft,NL,Delft NL,http://sws.geonames.org/2757345/,52.00667,4.35556,A,0
1193,Delfzijl,NL,Delfzijl NL,http://sws.geonames.org/2757340/,53.33,6.91806,A,0
1194,Delitzsch,DE,Delitzsch DE,http://sws.geonames.org/2938376/,51.52546,12.34284,D,1.791759469228055
1195,Dellenberg,DE,Dellenberg DE,http://sws.geonames.org/11258529/,47.97797,8.66184,D,0
1196,Delmenhorst,DE,Delmenhorst DE,http://sws.geonames.org/2938323/,53.0511,8.63091,B,0
1197,Delve,DE,Delve DE,http://sws.geonames.org/2938315/,54.3,9.25,B,0
1198,Demen,NL,Demen NL,http://sws.geonames.org/2757292/,51.81559,5.63084,A,0
1199,Demmerik,NL,Demmerik NL,http://sws.geonames.org/2757283/,52.20333,4.93194,A,1.9459101490553132
1200,Demmin,DE,Demmin DE,http://sws.geonames.org/2938284/,53.90762,13.03142,B,0
